[{"name": "LUCERO DEL SUR", "address": "KR 17 B Bis A#67-30Sur -KR 17 B Bis A#67-48 Sur", "location": {"latitude": 4.551175324, "longitude": -74.13698914}, "open": false}, {"name": "USAQUÉN", "address": "CR 6 A entre CLL 119 y 120 A Vía Pública", "location": {"latitude": 4.695605223, "longitude": -74.03102393}, "open": false}, {"name": "CLASS", "address": "CRR 80I NO 57B-50 SUR", "location": {"latitude": 4.614505445, "longitude": -74.17855256}, "open": true}, {"name": "SAN JUAN DE SUMAPAZ", "address": "CTRO. POBLADO CGTO.DE SAN JUAN", "location": {"latitude": 4.0299, "longitude": -74.3137}, "open": true}, {"name": "LA CASTELLANA", "address": "KR 47 A CON CL 94 CANCHA PQ.", "location": {"latitude": 4.682018718, "longitude": -74.06002899}, "open": false}, {"name": "PUESTO CENSO(FERIA EXPOSICION", "address": "CL 24 # 37-94", "location": {"latitude": 4.629331231, "longitude": -74.09169148}, "open": true}, {"name": "PENITENCIARIA LA PICOTA", "address": "VIA USME KM 5 CL 51 SUR No. 5F - 50", "location": {"latitude": 4.5492, "longitude": -74.1164}, "open": true}, {"name": "CHICO NORTE", "address": "Avenida Calle 100  No. 16 - 75", "location": {"latitude": 4.685206325, "longitude": -74.04961297}, "open": false}, {"name": "DIVINO SALVADOR", "address": "KR 14 A # 57-28", "location": {"latitude": 4.644427046, "longitude": -74.06639657}, "open": true}, {"name": "CAMILO TORRES", "address": "KR 7 # 33-64", "location": {"latitude": 4.620756586, "longitude": -74.06724978}, "open": true}, {"name": "LAS BRISAS", "address": "Kra 1 C ESTE No. 6 C - 04 SUR", "location": {"latitude": 4.578169899, "longitude": -74.08077475}, "open": true}, {"name": "SANTA FE", "address": "CL 22 A # 18 B-42", "location": {"latitude": 4.61508934, "longitude": -74.07942401}, "open": false}, {"name": "FONTIBON", "address": "KR 99 CL 17 A ESQ.", "location": {"latitude": 4.672569031, "longitude": -74.14465236}, "open": false}, {"name": "POLICARPA", "address": "CR 10A SUR NO 3-63 / CR 10A NO 3-21 SUR*", "location": {"latitude": 4.586519214, "longitude": -74.08811492}, "open": true}, {"name": "DELICIAS MUZU", "address": "CLL 39 SUR No 51D-19", "location": {"latitude": 4.599258087, "longitude": -74.13027621}, "open": true}, {"name": "USME", "address": "CL 136 SUR # 12-38", "location": {"latitude": 4.472655, "longitude": -74.121613}, "open": false}, {"name": "BOYACA", "address": "CL 71 # 75-11", "location": {"latitude": 4.688139072, "longitude": -74.09952889}, "open": false}, {"name": "LA CONCORDIA", "address": "Cl 12D No. 1A-09 Cl 12C No.1B-24", "location": {"latitude": 4.596979171, "longitude": -74.07153948}, "open": true}, {"name": "TUNJUELITO A", "address": "KR11 B # 52-53 SUR", "location": {"latitude": 4.558602448, "longitude": -74.12416527}, "open": false}, {"name": "CLARET", "address": "CL 46 SUR # 27-12", "location": {"latitude": 4.582938498, "longitude": -74.12842291}, "open": false}, {"name": "BOSA", "address": "CL 63 SUR # 81 A-30", "location": {"latitude": 4.611435038, "longitude": -74.18617018}, "open": false}, {"name": "PARQUE FUNDACION DE SUBA", "address": "CRA. 90 No. 146C-40", "location": {"latitude": 4.740894938, "longitude": -74.08343239}, "open": false}, {"name": "SAN JOAQUIN DEL VATICANO", "address": "CL 80 A SUR # 18 C-70", "location": {"latitude": 4.537017238, "longitude": -74.14470792}, "open": true}, {"name": "SERVITA", "address": "CL 165 No. 7-38/52", "location": {"latitude": 4.741392626, "longitude": -74.02353081}, "open": false}, {"name": "ROMA", "address": "CLL 57 A SUR NO 78 N ? 21", "location": {"latitude": 4.610225839, "longitude": -74.17404228}, "open": false}, {"name": "NAZARETH", "address": "CTRO. POBLADO CGTO.DE NAZARETH", "location": {"latitude": 4.1726, "longitude": -74.1473}, "open": true}, {"name": "RIONEGRO", "address": "TV. 60 # 95-51", "location": {"latitude": 4.684208669, "longitude": -74.06328236}, "open": true}, {"name": "CARCEL DISTRITAL JUDICIAL MODE", "address": "CR 56 NO 18 A - 47", "location": {"latitude": 4.634741954, "longitude": -74.1065038}, "open": true}, {"name": "CHICO RESERVADO", "address": "CL 97 # 10-45", "location": {"latitude": 4.679733713, "longitude": -74.04422466}, "open": false}, {"name": "SAN LUIS", "address": "KR 16 # 60-55", "location": {"latitude": 4.648031053, "longitude": -74.06710815}, "open": true}, {"name": "LA PERSEVERANCIA", "address": "CL 32 A # 3 C-37", "location": {"latitude": 4.617514361, "longitude": -74.06459987}, "open": false}, {"name": "SANTA ANA SUR", "address": "CL 10 A SUR # 3 A-61", "location": {"latitude": 4.576978848, "longitude": -74.08384161}, "open": false}, {"name": "SAMPER MENDOZA", "address": "CL 22 A # 25-52", "location": {"latitude": 4.618413997, "longitude": -74.08318188}, "open": false}, {"name": "VILLEMAR", "address": "CL 20 D # 96 G-51", "location": {"latitude": 4.672680605, "longitude": -74.13911705}, "open": true}, {"name": "CIUDAD BERNA", "address": "CL 10 SUR # 13-27", "location": {"latitude": 4.586164044, "longitude": -74.09331919}, "open": true}, {"name": "CIUDAD MONTES", "address": "KR 51  #  16 -64 Sur", "location": {"latitude": 4.606309219, "longitude": -74.12039242}, "open": true}, {"name": "EL DESTINO", "address": "KM 8 VÍA SAN JUAN DE SUMAPÁZ", "location": {"latitude": 4.408308, "longitude": -74.138294}, "open": true}, {"name": "ENGATIVA", "address": "KR 123 # 65 A-03", "location": {"latitude": 4.716190963, "longitude": -74.14098603}, "open": false}, {"name": "ALCALDIA MAYOR", "address": "KR 8 NO 10-65 ENTRE CL10,11Y12", "location": {"latitude": 4.59848168, "longitude": -74.07641092}, "open": false}, {"name": "FATIMA A", "address": "CLL 52 A SUR # 35 - 73", "location": {"latitude": 4.585400602, "longitude": -74.1381607}, "open": false}, {"name": "INGLES", "address": "CL 40 Sur # 26- 90 -CL 41 Sur #  26 - 44", "location": {"latitude": 4.582930149, "longitude": -74.12320536}, "open": false}, {"name": "VILLA DEL RIO", "address": "CL 55 A # 66-50 SUR", "location": {"latitude": 4.601783079, "longitude": -74.157594}, "open": false}, {"name": "COLEGIO SAN JOSE DE CALASANZ", "address": "CLL 129 # 88 B 35", "location": {"latitude": 4.723103007, "longitude": -74.08790179}, "open": false}, {"name": "PASQUILLA", "address": "KM 5 VIA OLARTE", "location": {"latitude": 4.444943, "longitude": -74.156088}, "open": true}, {"name": "CALAZANS", "address": "KR 20 A # 173 A-10 ENTRADA AL PARQUEADERO", "location": {"latitude": 4.753620713, "longitude": -74.04250146}, "open": false}, {"name": "PERPETUO SOCORRO", "address": "CRA 77K BIS A No 50-26 SUR", "location": {"latitude": 4.606054025, "longitude": -74.16672204}, "open": true}, {"name": "BETANIA", "address": "CTRO. POBLADO CGTO.DE BETANIA", "location": {"latitude": 4.218141, "longitude": -74.146173}, "open": true}, {"name": "PATRIA", "address": "KR 50 # 90-50", "location": {"latitude": 4.679191134, "longitude": -74.06532268}, "open": true}, {"name": "RECLUSION DE MUJERES EL BUEN P", "address": "CR 58 NO 80 - 95", "location": {"latitude": 4.68187942, "longitude": -74.07243908}, "open": true}, {"name": "CHICO LICEO FRANCES LOUIS PAST", "address": "CLL 86  No. 7 - 40", "location": {"latitude": 4.666588902, "longitude": -74.04648891}, "open": true}, {"name": "EL CAMPIN", "address": "DIAGONAL 61C  No. 27-21", "location": {"latitude": 4.647859406, "longitude": -74.07820862}, "open": true}, {"name": "POLICARPA SALAVARRIETA", "address": "CL 28 NO 5 A-06", "location": {"latitude": 4.614522268, "longitude": -74.06768878}, "open": false}, {"name": "SAN CRISTOBAL SUR", "address": "AV. CLL 11 SUR # 4-79 ESTE", "location": {"latitude": 4.57281138, "longitude": -74.07926219}, "open": false}, {"name": "COLSEGUROS", "address": "AV. CL 22 C # 29 A-47", "location": {"latitude": 4.621789538, "longitude": -74.08422956}, "open": false}, {"name": "HAYUELOS CENTRO COMERCIAL", "address": "CLL 20  NO 82 - 52", "location": {"latitude": 4.66319878, "longitude": -74.13115638}, "open": false}, {"name": "SAN ANTONIO", "address": "CLL 6 SUR # 14 - 49 -- CRA 14 # 6 - 51 SUR", "location": {"latitude": 4.587941518, "longitude": -74.09557445}, "open": true}, {"name": "SANTA MATILDE", "address": "CLL 1 NO 34B - 20 / CLL 1B  NO 35-20", "location": {"latitude": 4.6017147, "longitude": -74.10909646}, "open": false}, {"name": "MONTEBLANCO", "address": "TV. 6 B # 100 C-55 SUR", "location": {"latitude": 4.495122, "longitude": -74.117225}, "open": true}, {"name": "NORMANDIA", "address": "DG. 44 # 69-96", "location": {"latitude": 4.661780555, "longitude": -74.10808858}, "open": true}, {"name": "EGIPTO", "address": "KR 3 ESTE # 9 – 77", "location": {"latitude": 4.592024128, "longitude": -74.07016098}, "open": false}, {"name": "ABRAHAM LINCOLN", "address": "KR 8 # 53 A-44 SUR", "location": {"latitude": 4.55563843, "longitude": -74.12385423}, "open": false}, {"name": "BRAVO PAEZ", "address": "KR 26 B # 35 B-49 SUR", "location": {"latitude": 4.584157615, "longitude": -74.11864626}, "open": false}, {"name": "JOSE ANTONIO GALAN", "address": "KR 78 J # 58 M-10 SUR", "location": {"latitude": 4.606118932, "longitude": -74.17896985}, "open": false}, {"name": "COLEGIO VILLA ELISA SEDES C Y D", "address": "Calle 128 Bis No. 93-07 y Calle 128 Bis No. 93-80", "location": {"latitude": 4.72225132, "longitude": -74.09279122}, "open": false}, {"name": "EL TESORO", "address": "CL 81 Sur#18M -02 -CL 81 Sur #18 P - 08", "location": {"latitude": 4.535205992, "longitude": -74.14883503}, "open": true}, {"name": "AQUILEO PARRA", "address": "CR 18 A NO 187 - 75 / CR 18 A NO 187 - 71*", "location": {"latitude": 4.765741991, "longitude": -74.03924552}, "open": false}, {"name": "CATALINA", "address": "CLL 52 A SUR  NO  77 W - 05", "location": {"latitude": 4.676109283, "longitude": -74.11291663}, "open": false}, {"name": "LA UNION", "address": "CTRO. POBLADO CGTO.DE LA UNIÓN", "location": {"latitude": 3.9858, "longitude": -74.3635}, "open": true}, {"name": "GAITAN", "address": "KR 54 # 78-85", "location": {"latitude": 4.67427223, "longitude": -74.07225575}, "open": true}, {"name": "CARCEL DISTRITAL", "address": "KR 8 # 1 C-50 SUR", "location": {"latitude": 4.585215403, "longitude": -74.08454721}, "open": true}, {"name": "ANTIGUO COUNTRY PLAZOLETA CARU", "address": "Carrera 15 con Calle 85 Esquina", "location": {"latitude": 4.670163372, "longitude": -74.05516412}, "open": false}, {"name": "NICOLAS DE FEDERMAN", "address": "CL 57 B # 37-34", "location": {"latitude": 4.648145622, "longitude": -74.08196484}, "open": false}, {"name": "PALACIO SAN FRANCISCO", "address": "CLL 13 (AV JIMENEZ)  NO 7 - 56", "location": {"latitude": 4.601805453, "longitude": -74.07385328}, "open": true}, {"name": "LAS MERCEDES", "address": "CALLE 19 SUR No. 10 C -44 ESTE", "location": {"latitude": 4.576369599, "longitude": -74.09430198}, "open": true}, {"name": "ESTACION DE LA SABANA", "address": "CL 13 # 18-24", "location": {"latitude": 4.607028938, "longitude": -74.08335137}, "open": true}, {"name": "BELEN", "address": "KR 106 # 18-77", "location": {"latitude": 4.678305508, "longitude": -74.14720679}, "open": true}, {"name": "LUNA PARK", "address": "CL 10 B BIS SUR # 16-11", "location": {"latitude": 4.588392012, "longitude": -74.09609655}, "open": true}, {"name": "LA ASUNCION", "address": "KR 32 B  # 1 D - 21", "location": {"latitude": 4.602635674, "longitude": -74.10682032}, "open": false}, {"name": "SANTA MARTA", "address": "CL 69 D SUR # 8 B-63", "location": {"latitude": 4.524437734, "longitude": -74.11851031}, "open": true}, {"name": "BOSQUE POPULAR", "address": "KR 68 F NO 63 B-02", "location": {"latitude": 4.669197526, "longitude": -74.09558043}, "open": true}, {"name": "ARCHIVO DISTRITAL", "address": "Calle 6 B  No. 5 - 75", "location": {"latitude": 4.592024128, "longitude": -74.07016098}, "open": true}, {"name": "SAN CARLOS", "address": "KR 19 # 50 A-37 SUR", "location": {"latitude": 4.569859911, "longitude": -74.12845272}, "open": false}, {"name": "LIBERTADOR II", "address": "CL 32 SUR # 24 B-20", "location": {"latitude": 4.583881695, "longitude": -74.11621047}, "open": true}, {"name": "LA AMISTAD", "address": "CL 65 H Sur # 78A -03 -CL 65 H Sur # 78A -05", "location": {"latitude": 4.600419545, "longitude": -74.18598534}, "open": false}, {"name": "EL RINCON", "address": "KR 94 C # 129 A-04", "location": {"latitude": 4.725870571, "longitude": -74.09362809}, "open": false}, {"name": "MEXICO", "address": "CL 64 Sur #  17 - 50 -KR17  # 64 - 14 Sur", "location": {"latitude": 4.555256376, "longitude": -74.13689066}, "open": true}, {"name": "LIJACA", "address": "CL 189 # 7-05", "location": {"latitude": 4.765253211, "longitude": -74.02762852}, "open": false}, {"name": "CASABLANCA 32", "address": "CRR 79F NO 46-16 SUR", "location": {"latitude": 4.618926377, "longitude": -74.16740466}, "open": false}, {"name": "LA YE SANTA ROSA", "address": "CTRO POBLADO CGTO SANTA ROSA", "location": {"latitude": 0.0, "longitude": 0.0}, "open": true}, {"name": "ENTRE RIOS", "address": "KR 62 # 83-02", "location": {"latitude": 4.680981074, "longitude": -74.07557309}, "open": true}, {"name": "UNIVERSIDAD EAN", "address": "CALLE 79 No 11-45", "location": {"latitude": 4.663789367, "longitude": -74.0547044}, "open": true}, {"name": "PABLO VI", "address": "CARRERA 53 CON CALLE 57 B (PLAZOLETA)", "location": {"latitude": 4.649237509, "longitude": -74.08703632}, "open": false}, {"name": "BIBLIOTECA DISTRITAL ANTONIO N", "address": "CR 13 No. 14 - 69", "location": {"latitude": 4.604320192, "longitude": -74.07804596}, "open": false}, {"name": "SAN BLAS", "address": "KR 3 ESTE # 18 A-34 SUR", "location": {"latitude": 4.574061522, "longitude": -74.08700655}, "open": true}, {"name": "RICAURTE", "address": "CL 10 # 29-64", "location": {"latitude": 4.610016354, "longitude": -74.094523}, "open": true}, {"name": "SAN PABLO LA PERLA", "address": "CL 17 D # 123 B – 37", "location": {"latitude": 4.688795649, "longitude": -74.15838635}, "open": true}, {"name": "CIUDAD JARDIN", "address": "CL 16 BIS SUR # 12 C-02", "location": {"latitude": 4.582190932, "longitude": -74.09666085}, "open": false}, {"name": "ALCALDIA PUENTE ARANDA", "address": "Carrera 31 D No. 04 - 43", "location": {"latitude": 4.605662728, "longitude": -74.10334917}, "open": false}, {"name": "SANTA LIBRADA", "address": "CR 1A ESTE NO 72-60 SUR / CR 12 NO 72-60 SUR", "location": {"latitude": 4.519478938, "longitude": -74.11789165}, "open": false}, {"name": "EL GUALI", "address": "AV CL 64 C # 68 F-29", "location": {"latitude": 4.671349642, "longitude": -74.0942583}, "open": true}, {"name": "MURILLO TORO", "address": "Cra 8 No.12A-13 Cra 7 No. 12A-37", "location": {"latitude": 4.601229, "longitude": -74.074568}, "open": true}, {"name": "SAN BENITO", "address": "KR 18 # 56 A-45 SUR", "location": {"latitude": 4.564260106, "longitude": -74.13231662}, "open": true}, {"name": "CENTENARIO", "address": "KR 24 B # 29 A-02 SUR", "location": {"latitude": 4.584619301, "longitude": -74.11290414}, "open": false}, {"name": "CARLOS ALBAN", "address": "CL72 Sur #79 D - 33 -CL72 B Sur # 79 D - 06", "location": {"latitude": 4.605167067, "longitude": -74.19723894}, "open": false}, {"name": "COLEGIO ALBERTO LLERAS CAMARGO", "address": "Carrera 111 A No. 139 - 88", "location": {"latitude": 4.744197868, "longitude": -74.10216863}, "open": false}, {"name": "LUCERO MEDIO", "address": "CL. 65 D SUR NO 18 A-04", "location": {"latitude": 4.553130907, "longitude": -74.1437071}, "open": false}, {"name": "SAN ANTONIO UNIÓN COLOMBIA", "address": "CARRERA 7 A No. 182A -07", "location": {"latitude": 4.759517917, "longitude": -74.02751874}, "open": true}, {"name": "BRITALIA", "address": "CL 47 A SUR # 82 – 99", "location": {"latitude": 4.624685456, "longitude": -74.17241853}, "open": false}, {"name": "IED TOMAS CARRASQUILLA - SEDE B", "address": "CLL 75A NO 63 - 55 / CLL 74A NO 63 - 04*", "location": {"latitude": 4.676858, "longitude": -74.080447}, "open": false}, {"name": "UNIVERSIDAD SERGIO ARBOLEDA", "address": "CL 74 # 14-14", "location": {"latitude": 4.660757551, "longitude": -74.05974833}, "open": true}, {"name": "EL SALITRE", "address": "CL 46 NO 67 A – 35", "location": {"latitude": 4.655921913, "longitude": -74.0998803}, "open": false}, {"name": "LOS LACHES", "address": "KR 7 ESTE # 5-20", "location": {"latitude": 4.586374408, "longitude": -74.06535828}, "open": true}, {"name": "PRIMERA DE MAYO", "address": "CR 6 A NO 18 A - 04 SUR / CR 6 NO 18 - 02 SUR", "location": {"latitude": 4.575182248, "longitude": -74.08953925}, "open": true}, {"name": "LA ESTANZUELA", "address": "KR 19 # 11-17", "location": {"latitude": 4.605397149, "longitude": -74.08581878}, "open": true}, {"name": "VERSALLES", "address": "KR 112 # 23-05", "location": {"latitude": 4.686657567, "longitude": -74.14518978}, "open": false}, {"name": "RESTREPO A", "address": "CL 14 SUR # 14-20", "location": {"latitude": 4.584864552, "longitude": -74.09676928}, "open": true}, {"name": "LA PRIMAVERA", "address": "Carrera 41 B No. 4 C - 27", "location": {"latitude": 4.615321425, "longitude": -74.10943558}, "open": false}, {"name": "ALMIRANTE PADILLA", "address": "CL76A SUR NO 1D-59 ESTE / CL76A SUR NO 8D-25", "location": {"latitude": 4.51243466, "longitude": -74.11196412}, "open": false}, {"name": "EL LUJAN", "address": "AV. BOYACÁ # 64 H-39", "location": {"latitude": 4.679088934, "longitude": -74.10119952}, "open": true}, {"name": "COLEGIO MAYOR SAN BARTOLOME", "address": "CRA 7 No 9-54", "location": {"latitude": 0.0, "longitude": 0.0}, "open": true}, {"name": "EL TUNAL A", "address": "KR 24  # 49 - 86 Sur -KR 24 # 48 C - 86 Sur", "location": {"latitude": 4.575976, "longitude": -74.131518}, "open": false}, {"name": "OLAYA", "address": "CL 27 SUR # 22 A-02", "location": {"latitude": 4.583453057, "longitude": -74.10912949}, "open": true}, {"name": "LA LIBERTAD", "address": "KR 88 C # 66 A-03 SUR", "location": {"latitude": 4.624787399, "longitude": -74.1947676}, "open": false}, {"name": "TIBABUYES UNIVERSAL", "address": "KR 128 A # 139-13", "location": {"latitude": 4.746231617, "longitude": -74.11057587}, "open": false}, {"name": "VISTAHERMOSA", "address": "DG. 71 B SUR # 18 I-20", "location": {"latitude": 4.54722356, "longitude": -74.14819746}, "open": false}, {"name": "BARRANCAS", "address": "KR 7 NO 155-20", "location": {"latitude": 4.729886739, "longitude": -74.02399638}, "open": true}, {"name": "GRAN COLOMBIANO", "address": "CL 42A Sur No 79D-37 Cr 79D No. 42A-67 Sur", "location": {"latitude": 4.621199801, "longitude": -74.16260404}, "open": false}, {"name": "SIMON BOLIVAR", "address": "CL 74 A # 62-44", "location": {"latitude": 4.675597689, "longitude": -74.08017028}, "open": true}, {"name": "UNIVERSIDAD PEDAGOGICA NACIONA", "address": "Calle 72  No. 11 - 86", "location": {"latitude": 4.657657866, "longitude": -74.05906911}, "open": true}, {"name": "LA ESMERALDA", "address": "CL 45 # 54-51", "location": {"latitude": 4.647283414, "longitude": -74.08996472}, "open": true}, {"name": "CENTRO ORIENTE", "address": "KR 2 # 4-10", "location": {"latitude": 4.589611316, "longitude": -74.07386012}, "open": true}, {"name": "SOSIEGO", "address": "KR 9 A # 18-74 SUR", "location": {"latitude": 4.576361586, "longitude": -74.09301012}, "open": true}, {"name": "VERAGUAS", "address": "CL 5 A # 26 A-39", "location": {"latitude": 4.602877286, "longitude": -74.09628111}, "open": false}, {"name": "VERACRUZ", "address": "KR 101 # 23-42", "location": {"latitude": 4.679281626, "longitude": -74.13797306}, "open": true}, {"name": "RESTREPO B", "address": "KR 24 B # 16-03 SUR", "location": {"latitude": 4.590332833, "longitude": -74.10377134}, "open": false}, {"name": "CUNDINAMARCA", "address": "Calle 19 C No. 33 - 30", "location": {"latitude": 4.622457539, "longitude": -74.08944172}, "open": true}, {"name": "USMINIA", "address": "CL 102 A SUR # 5-06", "location": {"latitude": 4.495555757, "longitude": -74.11749919}, "open": false}, {"name": "VILLA LUZ", "address": "CL 64 C # 76-23", "location": {"latitude": 4.680635817, "longitude": -74.10626149}, "open": false}, {"name": "AUTONOMA DE COLOMBIA", "address": "CLL 12B No 4-31", "location": {"latitude": 0.0, "longitude": 0.0}, "open": true}, {"name": "EL CARMEN SUR A", "address": "CL 48 B SUR # 28-75", "location": {"latitude": 4.583398179, "longitude": -74.13225495}, "open": false}, {"name": "SAN JOSE", "address": "KR 13 A # 26 -17Sur -KR 12 F # 26 - 17 Sur", "location": {"latitude": 4.577259908, "longitude": -74.10233552}, "open": true}, {"name": "PIAMONTE", "address": "CL 68 A SUR # 80 H-05", "location": {"latitude": 4.606499077, "longitude": -74.1905156}, "open": false}, {"name": "CASABLANCA SUBA", "address": "CALLE 146 B No. 78-51", "location": {"latitude": 4.738006851, "longitude": -74.07562334}, "open": false}, {"name": "LA ACACIA", "address": "CL 62 SUR # 19 B – 42", "location": {"latitude": 4.560386906, "longitude": -74.14218163}, "open": true}, {"name": "LOS CEDRITOS 151", "address": "CL 150 # 16-56", "location": {"latitude": 4.731490087, "longitude": -74.04181593}, "open": false}, {"name": "LOS PERIODISTAS", "address": "CL 41 C SUR # 78 H – 85", "location": {"latitude": 4.617446, "longitude": -74.158521}, "open": true}, {"name": "JOSE JOAQUIN VARGAS", "address": "AV. CL 68 # 62-11", "location": {"latitude": 4.672638881, "longitude": -74.08270159}, "open": true}, {"name": "GRANADA COLEGIO SIMON RODRIGUE", "address": "Calle 65 Bis  No. 4 - 90", "location": {"latitude": 4.648436917, "longitude": -74.05653592}, "open": false}, {"name": "CAFAM CALLE 51", "address": "CR 16 NO 51 - 20 / 26  (Parqueadero)", "location": {"latitude": 4.638833251, "longitude": -74.06851859}, "open": true}, {"name": "SAN BERNARDO", "address": "CL 3 # 11 B-40", "location": {"latitude": 4.593471998, "longitude": -74.0846123}, "open": true}, {"name": "JUAN DEL RIZZO", "address": "CLL 27 SUR # 2 B - 59 -- CLL 27 A SUR # 2 B -59", "location": {"latitude": 4.614205408, "longitude": -74.06938522}, "open": false}, {"name": "CENTRO CRECER", "address": "AV. CLL 1 No. 24B - 26", "location": {"latitude": 4.594572057, "longitude": -74.09751975}, "open": false}, {"name": "MODELIA SUR", "address": "CL 25 B # 81-41", "location": {"latitude": 4.669949513, "longitude": -74.11904175}, "open": false}, {"name": "LA FRAGUITA", "address": "CR 24A NO 7-45 SUR -  CR 24C NO 7-46 SUR", "location": {"latitude": 4.592705964, "longitude": -74.09988902}, "open": true}, {"name": "LA FRANCIA", "address": "Diagonal 5 F Bis A No. 43 B 02", "location": {"latitude": 4.620124497, "longitude": -74.10800741}, "open": false}, {"name": "MARICHUELA", "address": "KR 14 B # 76-33 SUR", "location": {"latitude": 4.538671599, "longitude": -74.13475406}, "open": false}, {"name": "LOS ALAMOS", "address": "CL 66 A # 97 A-15", "location": {"latitude": 4.695752382, "longitude": -74.11964769}, "open": false}, {"name": "EGIPTO ESCUELA QUINTA DIAZ", "address": "CLL 9A No 0-30", "location": {"latitude": 0.0, "longitude": 0.0}, "open": true}, {"name": "SAN VICENTE FERRER", "address": "CARRERA 25 No. 53B-32 SUR", "location": {"latitude": 4.577621213, "longitude": -74.13826312}, "open": true}, {"name": "ALEJANDRO OBREGON GUSTAVO REST", "address": "CLL 30 SUR NO 13 - 45", "location": {"latitude": 4.573545203, "longitude": -74.10519109}, "open": false}, {"name": "LA ESTACION", "address": "CL 63 SUR # 77 M-66", "location": {"latitude": 4.600987505, "longitude": -74.18081316}, "open": false}, {"name": "VILLA DEL PRADO-UNI. AGRARIA", "address": "Calle 170  No. 54 A - 10", "location": {"latitude": 4.753350888, "longitude": -74.05334631}, "open": false}, {"name": "JERUSALEN (EL TANQUE)", "address": "CL 75 SUR # 46 B-16", "location": {"latitude": 4.571803765, "longitude": -74.16548586}, "open": false}, {"name": "UNIVERSIDAD DEL BOSQUE", "address": "AV. 9 # 131 A – 02", "location": {"latitude": 4.710324937, "longitude": -74.03252063}, "open": false}, {"name": "AVENIDA BOYACA SUR", "address": "TV. 72 B # 44 C – 19 SUR", "location": {"latitude": 4.599492168, "longitude": -74.14620198}, "open": true}, {"name": "SAN FERNANDO", "address": "KR 57 A # 74 A-32", "location": {"latitude": 4.673238701, "longitude": -74.07694786}, "open": true}, {"name": "SENA CALLE 65", "address": "CR 13 NO 65 - 10 ENTRADA PARQUEADERO", "location": {"latitude": 4.651705726, "longitude": -74.06302578}, "open": false}, {"name": "PALERMO", "address": "KR 23 # 49-37", "location": {"latitude": 4.638024611, "longitude": -74.07392669}, "open": false}, {"name": "LAS CRUCES", "address": "CL 3 # 9-70", "location": {"latitude": 4.592184578, "longitude": -74.08235611}, "open": false}, {"name": "MONTEBELLO", "address": "CLL 24 A SUR NO 1A - 95 ESTE", "location": {"latitude": 4.566991238, "longitude": -74.08834403}, "open": true}, {"name": "EL VERGEL", "address": "KR 21 # 1 H – 06", "location": {"latitude": 4.596213266, "longitude": -74.09434724}, "open": true}, {"name": "SANTA CECILIA - MODELIA", "address": "CL 25 B # 83-14", "location": {"latitude": 4.671894126, "longitude": -74.12060468}, "open": true}, {"name": "LA FRAGUA", "address": "CL 14 SUR # 28-16", "location": {"latitude": 4.594383532, "longitude": -74.10472075}, "open": true}, {"name": "PUENTE ARANDA", "address": "Carrera 56 No. 15 - 41", "location": {"latitude": 4.631988245, "longitude": -74.10886805}, "open": true}, {"name": "LA AURORA", "address": "TV. 14 T # 70 49 SUR", "location": {"latitude": 4.5217, "longitude": -74.1211}, "open": false}, {"name": "VILLA AMALIA", "address": "KR 110 B  # 71 C - 45 -CL 71 C  # 110 B - 21", "location": {"latitude": 4.710923776, "longitude": -74.12605125}, "open": true}, {"name": "LA SALLE CANDELARIA", "address": "Carrera 21  No. 1 D – 06 Carrera 21  No. 1 H – 06 *", "location": {"latitude": 0.0, "longitude": 0.0}, "open": true}, {"name": "VENECIA A", "address": "KR 55 # 49-25 SUR", "location": {"latitude": 4.592307206, "longitude": -74.14358241}, "open": false}, {"name": "QUIROGA", "address": "CL 30 SUR # 19 B-25", "location": {"latitude": 4.579681746, "longitude": -74.11076721}, "open": true}, {"name": "LAURELES", "address": "KR 80 K # 73 F-29 SUR", "location": {"latitude": 4.608890923, "longitude": -74.19993962}, "open": false}, {"name": "PRADO PINZON", "address": "KR 53 # 135-13", "location": {"latitude": 4.722990696, "longitude": -74.05738754}, "open": false}, {"name": "JUAN PABLO II", "address": "KR 18 P # 67 C-21 SUR", "location": {"latitude": 4.582954449, "longitude": -74.10330622}, "open": false}, {"name": "SANTO TOMAS DE AQUINO", "address": "CRA 21 No 132-46", "location": {"latitude": 4.720992895, "longitude": -74.04581989}, "open": false}, {"name": "LA CHUCUA", "address": "KR 72 I # 42 F-54 SUR", "location": {"latitude": 4.603234349, "longitude": -74.14881153}, "open": true}, {"name": "POPULAR MODELO", "address": "CLL 66A No 56B–35-CLL 66A No 56–25", "location": {"latitude": 4.66537558, "longitude": -74.08119251}, "open": true}, {"name": "UNIVERSIDAD KONRAD LORENZ", "address": "KR 9 BIS # 62-43", "location": {"latitude": 4.648355069, "longitude": -74.06124344}, "open": false}, {"name": "COLEGIO AMERICANO", "address": "KR 22 # 45 A – 51", "location": {"latitude": 4.63413467, "longitude": -74.07367034}, "open": false}, {"name": "GIRARDOT", "address": "CLL 3 No 1B-09 ESTE-CLL 3 No 2-64 ESTE", "location": {"latitude": 4.587813004, "longitude": -74.07430059}, "open": true}, {"name": "RAMAJAL", "address": "KR 9 B ESTE # 28-81 SUR", "location": {"latitude": 4.563781536, "longitude": -74.08036016}, "open": false}, {"name": "EDUARDO SANTOS", "address": "KR19A BIS #1A55 K19B BIS #1C55", "location": {"latitude": 4.594132852, "longitude": -74.09298994}, "open": false}, {"name": "CENTRO A", "address": "KR 97 # 16 J-15", "location": {"latitude": 4.670347837, "longitude": -74.14449076}, "open": true}, {"name": "SANTANDER", "address": "CL 23 SUR # 27 -27", "location": {"latitude": 4.589131603, "longitude": -74.10975484}, "open": true}, {"name": "SALAZAR GOMEZ", "address": "Calle 11 No. 65 B - 10", "location": {"latitude": 4.633508059, "longitude": -74.1182311}, "open": true}, {"name": "CHUNIZA", "address": "CRA 9 No 84A-82 SUR", "location": {"latitude": 4.506, "longitude": -74.1114}, "open": true}, {"name": "VILLAS DE GRANADA", "address": "CL 72 C # 112-10", "location": {"latitude": 4.713430852, "longitude": -74.12716573}, "open": false}, {"name": "NUEVO MUZU  A", "address": "KR 59 # 52 A-30 SUR", "location": {"latitude": 4.586309099, "longitude": -74.14776422}, "open": false}, {"name": "ALCALDIA QUIROGA", "address": "CL 32 SUR # 22-30", "location": {"latitude": 4.580275224, "longitude": -74.11470672}, "open": false}, {"name": "PALESTINA", "address": "CL 70 A SUR # 81 G-13", "location": {"latitude": 4.611708212, "longitude": -74.19343454}, "open": false}, {"name": "PRADO CIUDAD JARDIN", "address": "CL 129 B # 58 B-45", "location": {"latitude": 4.719367873, "longitude": -74.06980023}, "open": false}, {"name": "SAN FRANCISCO", "address": "CL 67 SUR # 20 D-20", "location": {"latitude": 4.563468391, "longitude": -74.14902961}, "open": false}, {"name": "INSTITUTO PEDAGOGICO", "address": "AV. CL 127 # 11-20", "location": {"latitude": 4.703851406, "longitude": -74.03339118}, "open": false}, {"name": "CARIMAGUA", "address": "KR. 62 B # 39-57 SUR", "location": {"latitude": 4.603408316, "longitude": -74.14103545}, "open": true}, {"name": "12 DE OCTUBRE", "address": "KR 29 C # 71 C-11", "location": {"latitude": 4.666843356, "longitude": -74.07335658}, "open": true}, {"name": "SENA CALLE 52", "address": "CL 52 # 13-65", "location": {"latitude": 4.639227843, "longitude": -74.06590657}, "open": false}, {"name": "BELALCAZAR", "address": "KR 27 # 45 A-63", "location": {"latitude": 4.635424333, "longitude": -74.0771869}, "open": true}, {"name": "EL CONSUELO", "address": "KR 11 ESTE # 1 A-85", "location": {"latitude": 4.580277965, "longitude": -74.07109387}, "open": true}, {"name": "BELLO HORIZONTE", "address": "CL 31D BIS SUR No2-24 E-CL 31D BIS SUR No2-25 E", "location": {"latitude": 4.559925382, "longitude": -74.09301794}, "open": false}, {"name": "SAN FASON", "address": "CL 19 # 19-27", "location": {"latitude": 4.61186613, "longitude": -74.08096781}, "open": true}, {"name": "LA LAGUNA", "address": "CL 16 F BIS # 102-70", "location": {"latitude": 4.672245607, "longitude": -74.14939245}, "open": true}, {"name": "SANTANDER SUR", "address": "CL 29 SUR NO 29 A-47", "location": {"latitude": 4.590182022, "longitude": -74.1135735}, "open": true}, {"name": "LA TRINIDAD", "address": "Calle 5 B No. 60 - 29", "location": {"latitude": 4.626795716, "longitude": -74.11677359}, "open": true}, {"name": "LA FLORA", "address": "KR15 Este # 76- 59 Sur -KR14Este# 76-79 Sur", "location": {"latitude": 4.5133, "longitude": -74.0912}, "open": true}, {"name": "GARCES NAVAS", "address": "CRA 107B No 74B-31", "location": {"latitude": 4.710877118, "longitude": -74.12191293}, "open": true}, {"name": "ISLA DEL SOL", "address": "CL 67 B SUR # 63-15", "location": {"latitude": 4.589320247, "longitude": -74.15260844}, "open": false}, {"name": "CENTRAL QUIROGA", "address": "CL 37 SUR # 23-51", "location": {"latitude": 4.579903797, "longitude": -74.11901497}, "open": true}, {"name": "ORLANDO HIGUITA", "address": "CL 57 Sur  # 87 H - 03 -CL 57 Sur # 87 G - 35", "location": {"latitude": 4.625586531, "longitude": -74.18711967}, "open": false}, {"name": "CENTRO COMERCIAL BULEVAR NIZA", "address": "Avenida Calle 127  No. 58 - 58", "location": {"latitude": 4.711330514, "longitude": -74.07146965}, "open": false}, {"name": "CANDELARIA LA NUEVA", "address": "KR 43 A  #  66 - 51Sur -DG 64 A Sur  #  41 -51", "location": {"latitude": 4.571106388, "longitude": -74.15264519}, "open": false}, {"name": "UNICENTRO", "address": "AV. 15 # 124-30", "location": {"latitude": 4.702776078, "longitude": -74.0426521}, "open": false}, {"name": "TIMIZA", "address": "DG. 41 SUR # 73 A – 80", "location": {"latitude": 4.612284418, "longitude": -74.15370195}, "open": true}, {"name": "SANTA SOFIA", "address": "KR 28 B # 78-40", "location": {"latitude": 4.670717876, "longitude": -74.06712644}, "open": true}, {"name": "UNIVERSIDAD PILOTO", "address": "KR 9 # 45 A-25", "location": {"latitude": 4.632528463, "longitude": -74.06534295}, "open": false}, {"name": "QUINTA PAREDES  A", "address": "AV Dorado NO 44 A - 40", "location": {"latitude": 4.635912524, "longitude": -74.09152099}, "open": true}, {"name": "MEDICINA LEGAL", "address": "KR12 A  # 7 - 07", "location": {"latitude": 4.597379627, "longitude": -74.08272864}, "open": true}, {"name": "SAN ISIDRO", "address": "CL 34 SUR # 7 A-88", "location": {"latitude": 4.565738028, "longitude": -74.10118262}, "open": true}, {"name": "LA REBECA", "address": "CARRERA 24 No. 1H -19", "location": {"latitude": 4.596826166, "longitude": -74.0958062}, "open": true}, {"name": "BATAVIA", "address": "KR 114 # 17 C-07", "location": {"latitude": 4.682558685, "longitude": -74.15304139}, "open": false}, {"name": "VILLA MAYOR", "address": "CL 38 A SUR # 34 D-51", "location": {"latitude": 4.592979586, "longitude": -74.12305329}, "open": false}, {"name": "LA PRADERA", "address": "CL 4 B # 65-31", "location": {"latitude": 4.623963033, "longitude": -74.12168409}, "open": true}, {"name": "EL HATO", "address": "KM 14 VÍA SAN JUAN DE SUMAPÁZ", "location": {"latitude": 4.3696, "longitude": -74.1795}, "open": true}, {"name": "BOCHICA", "address": "TR 100A NO 80A - 20 / AV CLL 80 NO 100-52", "location": {"latitude": 4.711526069, "longitude": -74.11150254}, "open": true}, {"name": "VENECIA B", "address": "DG 49 Sur  # 48 - 71 -DG 49 Sur # 51 D - 05", "location": {"latitude": 4.591468597, "longitude": -74.1385572}, "open": true}, {"name": "SANTA LUCIA", "address": "TV. 23 BIS # 44-90 SUR", "location": {"latitude": 4.57817564, "longitude": -74.12580834}, "open": true}, {"name": "BOSA PAULO VI", "address": "CL 71 BIS SUR # 77 I-21", "location": {"latitude": 4.599350291, "longitude": -74.19443339}, "open": false}, {"name": "PONTEVEDRA", "address": "CL 102 A # 70-40", "location": {"latitude": 4.695834022, "longitude": -74.07400553}, "open": false}, {"name": "ARBORIZADORA BAJA", "address": "CL 59 I Sur # 44A -02 -CL 59 Sur #  44 A - 09", "location": {"latitude": 4.57545122, "longitude": -74.15119682}, "open": true}, {"name": "PLAZA MEXICO", "address": "CRA 19 A CON CL 117", "location": {"latitude": 4.69926432, "longitude": -74.05071903}, "open": false}, {"name": "LA UBA", "address": "Carrera 73 C Bis  No. 38 C – 84 Sur", "location": {"latitude": 4.616972309, "longitude": -74.14944636}, "open": true}, {"name": "POLO CLUB", "address": "AV KR 20 (AUTO NORTE) # 81-55", "location": {"latitude": 4.669273969, "longitude": -74.06061229}, "open": false}, {"name": "COLEGIO CAMPESTRE MONTEVERDE S", "address": "CR 5 C ESTE  NO 98 A - 55", "location": {"latitude": 4.670473924, "longitude": -74.02146577}, "open": true}, {"name": "QUINTA PAREDES B", "address": "AV. CL 24 # 48-53", "location": {"latitude": 4.637016464, "longitude": -74.09721427}, "open": true}, {"name": "LAS AGUAS", "address": "CL 21 # 1 - 20", "location": {"latitude": 4.60409405, "longitude": -74.06594227}, "open": true}, {"name": "PARQUEADERO GUACAMAYAS", "address": "CARRERA 2 L # 38A-11 SUR", "location": {"latitude": 4.556368088, "longitude": -74.09797912}, "open": false}, {"name": "PANAMERICANO", "address": "CRA 27 No. 24C - 19", "location": {"latitude": 4.619947, "longitude": -74.08455}, "open": true}, {"name": "LA GIRALDA", "address": "KR104B #22J-15 -CL23 # 104B -15", "location": {"latitude": 4.680612681, "longitude": -74.14085863}, "open": false}, {"name": "SENA", "address": "AV CR 30 NO 17B-25 SUR / AV CR 30 NO 17-91 SUR*", "location": {"latitude": 4.593423895, "longitude": -74.1078731}, "open": true}, {"name": "COLON", "address": "CALLE 4 No. 56 -03", "location": {"latitude": 4.620391665, "longitude": -74.11907149}, "open": false}, {"name": "LOS COMUNEROS", "address": "CL 91 C SUR # 2 A-49", "location": {"latitude": 4.4986, "longitude": -74.1088}, "open": false}, {"name": "LOS ALAMOS NORTE", "address": "KR 104 A # 76 B-09", "location": {"latitude": 4.710416273, "longitude": -74.11725248}, "open": false}, {"name": "TUNJUELITO B", "address": "CL 58 SUR NO 12A- 45 / CL 58A SUR NO 12A-25", "location": {"latitude": 4.558939189, "longitude": -74.12925707}, "open": true}, {"name": "LAS COLINAS", "address": "DG 32 B Sur #15 C- 25 -DG 32 B Sur#13 B - 17", "location": {"latitude": 4.574190984, "longitude": -74.11271045}, "open": true}, {"name": "BOSA BRASILIA", "address": "CLL 52 A Sur # 87 D 45", "location": {"latitude": 4.627545898, "longitude": -74.18104076}, "open": false}, {"name": "SAN NICOLAS-AGUSTINIANO NORTE", "address": "Carrera 70 C  No. 116 A - 12", "location": {"latitude": 4.700284015, "longitude": -74.07221819}, "open": false}, {"name": "MADELENA", "address": "KR 66 # 60 A-23 / 47 SUR", "location": {"latitude": 4.592287507, "longitude": -74.15683867}, "open": false}, {"name": "SANTA PAULA", "address": "KR 13 A # 107 A-10", "location": {"latitude": 4.690452281, "longitude": -74.04279589}, "open": false}, {"name": "SANTA MARTA DE PASTRANA", "address": "CL 40 J SUR # 78-08", "location": {"latitude": 4.618047003, "longitude": -74.15565994}, "open": true}, {"name": "SAN FELIPE", "address": "CL 77 # 22-66 / 68", "location": {"latitude": 4.666818743, "longitude": -74.06335761}, "open": true}, {"name": "COLEGIO SIMON RODRIGUEZ SEDE A", "address": "CALLE 69 No 11-27", "location": {"latitude": 4.654165487, "longitude": -74.06096628}, "open": true}, {"name": "CENTRO NARIÑO", "address": "Av. Calle 24  No. 37 - 27", "location": {"latitude": 4.628423853, "longitude": -74.09132926}, "open": false}, {"name": "LAS NIEVES", "address": "CL 20 # 4-68", "location": {"latitude": 4.605069921, "longitude": -74.06938721}, "open": false}, {"name": "SAN MARTIN DE LOBA SUR", "address": "Diagonal 39 Sur  No. 2 - 10 Este / Diagonal 39 Sur  No. 2 - 00 Este*", "location": {"latitude": 4.551974377, "longitude": -74.0956511}, "open": true}, {"name": "ANTONIO RICAURTE", "address": "CARRERA 26 No 7-61", "location": {"latitude": 4.605996, "longitude": -74.094101}, "open": true}, {"name": "PUERTA DE TEJA", "address": "CL 25 C BIS B NO 96-56", "location": {"latitude": 4.681445308, "longitude": -74.12694385}, "open": true}, {"name": "LA VALVANERA", "address": "CALLE 13 SUR No. 24 B - 04", "location": {"latitude": 4.591637703, "longitude": -74.10231938}, "open": true}, {"name": "SAN RAFAEL", "address": "CL 4 F # 53-55", "location": {"latitude": 4.619779876, "longitude": -74.11338069}, "open": true}, {"name": "EL VIRREY", "address": "KR 7 # 92 A-31 SUR", "location": {"latitude": 4.5025, "longitude": -74.1118}, "open": false}, {"name": "LA SALINA", "address": "CL 70 A # 94-38", "location": {"latitude": 4.697766984, "longitude": -74.11377562}, "open": true}, {"name": "El Tunal B", "address": "CL 48 C  Sur  # 24 - 14 -CL 48 C  Sur # 24 - 41", "location": {"latitude": 4.579968971, "longitude": -74.13169014}, "open": true}, {"name": "COUNTRY SUR", "address": "KR 10 # 31-29 SUR", "location": {"latitude": 4.568640196, "longitude": -74.10112487}, "open": true}, {"name": "ISLANDIA", "address": "KR 86 # 74-00 SUR", "location": {"latitude": 4.616511147, "longitude": -74.19967788}, "open": true}, {"name": "LA CONEJERA", "address": "KR 92 # 169 B 60", "location": {"latitude": 4.75898729, "longitude": -74.07740686}, "open": true}, {"name": "ISMAEL PERDOMO", "address": "CL 64 SUR # 71 F-18", "location": {"latitude": 4.587158669, "longitude": -74.16530169}, "open": false}, {"name": "HACIENDA SANTA BARBARA", "address": "CLL 114 CR 6 ENT. ZONA C-CRA 6 No 115-65 ENT. F", "location": {"latitude": 4.691846172, "longitude": -74.03177072}, "open": false}, {"name": "LA MACARENA", "address": "KR 74 B # 38 A-35 SUR", "location": {"latitude": 4.6194057, "longitude": -74.15028699}, "open": true}, {"name": "LOS ALCAZARES", "address": "KR 27 C #71-80", "location": {"latitude": 4.662991015, "longitude": -74.07065156}, "open": true}, {"name": "UNIVERSIDAD DISTRITAL", "address": "KR 8 # 40 B-62", "location": {"latitude": 4.627831889, "longitude": -74.0660575}, "open": true}, {"name": "RESIDENCIAS B.C.H.", "address": "KR 32 A # 27-18", "location": {"latitude": 4.629650158, "longitude": -74.08169853}, "open": false}, {"name": "EL VERJON", "address": "KM 13 VÍA A CHOACHÍ", "location": {"latitude": 4.6058, "longitude": -74.0225}, "open": true}, {"name": "BELLAVISTA SAN CRISTOBAL", "address": "CARRERA 9 ESTE # 36 G -80 SUR", "location": {"latitude": 4.551456502, "longitude": -74.08802797}, "open": true}, {"name": "SAN FRANCISCO DE ASIS", "address": "DIAGONAL 1 No 19-79-CLL 1C BIS No 19-79", "location": {"latitude": 4.596331, "longitude": -74.094395}, "open": true}, {"name": "Agustiniano Salitre", "address": "Calle 23C # 69B – 01", "location": {"latitude": 4.655760437, "longitude": -74.11336707}, "open": false}, {"name": "SALÓN COMUNAL SAN ANTONIO", "address": "CRA 18A No 4-81 SUR-CLL 6 SUR No 18A-04", "location": {"latitude": 4.599258087, "longitude": -74.13027621}, "open": true}, {"name": "EL JAZMIN", "address": "CL 1 H # 40 D-13", "location": {"latitude": 4.609941135, "longitude": -74.11476282}, "open": false}, {"name": "EL DANUBIO AZUL", "address": "CL 56 A SUR # 3 A-14", "location": {"latitude": 4.5378, "longitude": -74.115}, "open": false}, {"name": "LA FLORIDA", "address": "CR 89 NO 68 A - 36 / CR 89 NO 68 A - 32", "location": {"latitude": 4.69295828, "longitude": -74.11067668}, "open": true}, {"name": "El Carmen Sur B", "address": "CLL 48 B SUR Nº 28-56", "location": {"latitude": 4.582835032, "longitude": -74.13202743}, "open": true}, {"name": "LAS LOMAS", "address": "KR 10 A #39-05 SUR", "location": {"latitude": 4.56370927, "longitude": -74.10676695}, "open": true}, {"name": "JIMENEZ DE QUESADA", "address": "DG. 66 SUR # 80 C-20", "location": {"latitude": 4.606100718, "longitude": -74.18845955}, "open": false}, {"name": "PRADO VERANIEGO", "address": "KR 46 # 130-65", "location": {"latitude": 4.717159632, "longitude": -74.05417374}, "open": false}, {"name": "MOCHUELO ALTO", "address": "KM 24 VÍA A PASQUILLA", "location": {"latitude": 4.4888, "longitude": -74.1483}, "open": true}, {"name": "ALTOS DE SAN ISIDRO", "address": "KM 4.5 VÍA LA CALERA", "location": {"latitude": 4.675441744, "longitude": -74.02396302}, "open": true}, {"name": "EL JAPON", "address": "KR 78 G # 38 C-11 SUR", "location": {"latitude": 4.621632488, "longitude": -74.15344295}, "open": false}, {"name": "LA PAZ", "address": "KR 28 B # 65-80", "location": {"latitude": 4.660220166, "longitude": -74.07520914}, "open": true}, {"name": "CENTRO COMERCIAL DE LA 93", "address": "CLL 93  NO 14 -20  ENTRADA C", "location": {"latitude": 4.676504338, "longitude": -74.05125612}, "open": true}, {"name": "SANTA TERESITA", "address": "KR 15 # 46-69", "location": {"latitude": 4.6340586, "longitude": -74.06843986}, "open": false}, {"name": "EL GRAN SAN", "address": "CRA 10 No 9-37", "location": {"latitude": 0.0, "longitude": 0.0}, "open": true}, {"name": "LA VICTORIA A", "address": "CL 37 BIS B SUR No. 2 - 81 Este", "location": {"latitude": 4.554467553, "longitude": -74.09479382}, "open": false}, {"name": "CENTRO DE MEMORIA", "address": "CRA 19B No 24-32", "location": {"latitude": 0.0, "longitude": 0.0}, "open": true}, {"name": "Tres Elefantes - La Esperanza", "address": "Carrera 72A # 23 - 55", "location": {"latitude": 4.660356231, "longitude": -74.11848714}, "open": false}, {"name": "COLEGIO ADVENTISTA EMMANUEL", "address": "CLL 10B SUR No 18A-15", "location": {"latitude": 0.0, "longitude": 0.0}, "open": true}, {"name": "LA PONDEROSA", "address": "CL 1 B # 52 A-02", "location": {"latitude": 4.611447259, "longitude": -74.11914385}, "open": true}, {"name": "JUAN JOSE RONDON", "address": "CL 88 F SUR # 12 F -20 ESTE", "location": {"latitude": 4.5037, "longitude": -74.0912}, "open": true}, {"name": "SANTA HELENITA", "address": "KR 78 # 69 A-11", "location": {"latitude": 4.688861831, "longitude": -74.10336406}, "open": false}, {"name": "FATIMA B", "address": "DG 50 SUR NO 34A-00 / DG 52 A Sur NO 33-81", "location": {"latitude": 4.584113596, "longitude": -74.13803319}, "open": true}, {"name": "ALEXANDER FLEMING SAN JORGE", "address": "CL 43 Sur#16A - 40 -DG 45 B Bis Sur#13 F - 41", "location": {"latitude": 4.571310284, "longitude": -74.12005729}, "open": false}, {"name": "SAN BERNARDINO", "address": "KR 89 C # 79-51 SUR", "location": {"latitude": 4.62362833, "longitude": -74.20613805}, "open": false}, {"name": "NIZA IX", "address": "KR 53 A # 128-51", "location": {"latitude": 4.713495869, "longitude": -74.06067303}, "open": false}, {"name": "MOCHUELO BAJO", "address": "EL CLAVEL KM 10 VÍA QUIBA", "location": {"latitude": 4.5104, "longitude": -74.152}, "open": true}, {"name": "LAS ORQUIDEAS", "address": "CL 166 # 16 C-15", "location": {"latitude": 4.745503576, "longitude": -74.03940218}, "open": false}, {"name": "ESTADOS UNIDOS SUPER 13", "address": "KR 80 # 39 A-55 SUR", "location": {"latitude": 4.625311993, "longitude": -74.15997791}, "open": false}, {"name": "COLOMBIA", "address": "CL 69 # 17-39", "location": {"latitude": 4.657423379, "longitude": -74.06540752}, "open": true}, {"name": "MUSEO DEL CHICO", "address": "CR 7 NO 93 - 01/ AV CR 7  NO 93 - 51*", "location": {"latitude": 4.673798634, "longitude": -74.04310332}, "open": false}, {"name": "LA MAGDALENA", "address": "KR 17 # 39 B-51", "location": {"latitude": 4.629283922, "longitude": -74.0708929}, "open": true}, {"name": "COLEGIO RAMON JIMENO", "address": "CLL 26 No 2-44", "location": {"latitude": 0.0, "longitude": 0.0}, "open": true}, {"name": "ALTAMIRA", "address": "CL 42 A SUR # 12 A-27 ESTE", "location": {"latitude": 4.545585683, "longitude": -74.08483063}, "open": false}, {"name": "SALON COMUNAL SANTA ISABEL", "address": "CLL 1D BIS No 29-92", "location": {"latitude": 0.0, "longitude": 0.0}, "open": true}, {"name": "PUENTE GRANDE", "address": "KR 136 # 17 D-52", "location": {"latitude": 4.696836459, "longitude": -74.16704745}, "open": false}, {"name": "SALON COMUNAL VILLA MAYOR", "address": "CRA 34C No 34-18 SUR", "location": {"latitude": 0.0, "longitude": 0.0}, "open": true}, {"name": "GALAN", "address": "CL 2 BIS # 56 A-37", "location": {"latitude": 4.617466084, "longitude": -74.12247257}, "open": false}, {"name": "LA FORTALEZA", "address": "CLL 73 B Sur # 14 C 16", "location": {"latitude": 4.515014, "longitude": -74.118864}, "open": true}, {"name": "LA EUROPA", "address": "KR 70 C BIS # 71-33", "location": {"latitude": 4.683802421, "longitude": -74.09348603}, "open": false}, {"name": "Nuevo  Muzo B", "address": "KR 59 No. 52 A - 50 Sur -KR 61 B  # 52 A 20 Sur", "location": {"latitude": 4.586133235, "longitude": -74.1477247}, "open": true}, {"name": "REINO DE HOLANDA", "address": "DG. 46 SUR # 12 A-32", "location": {"latitude": 4.567086677, "longitude": -74.11484522}, "open": false}, {"name": "BOSA SAN JOSE", "address": "KR 89 Bis#85A - 20Sur -KR 80 K # 85A - 33 Sur", "location": {"latitude": 4.628889915, "longitude": -74.19092594}, "open": false}, {"name": "LA ALHAMBRA CARULLA", "address": "Calle 114 A No 45 - 98", "location": {"latitude": 4.698439853, "longitude": -74.05613646}, "open": false}, {"name": "CORDILLERA", "address": "KR 18 R # 77 - 16 Sur -KR 18 R # 77A-30 Sur", "location": {"latitude": 4.540416878, "longitude": -74.1511744}, "open": true}, {"name": "LOS CEDRITOS", "address": "AV. 9 # 146-40", "location": {"latitude": 4.724512094, "longitude": -74.03212799}, "open": false}, {"name": "EL SAUCEDAL", "address": "KR 83 # 38 B-12 SUR", "location": {"latitude": 4.63312246, "longitude": -74.16275941}, "open": false}, {"name": "LA MUEQUETA", "address": "CL 64 # 20-21", "location": {"latitude": 4.654552824, "longitude": -74.06930257}, "open": true}, {"name": "COLEGIO SAN MARTIN DE PORRES-", "address": "TR 2 ESTE NO 42 - 07 / CLL 45 NO 3 - 35 ESTE", "location": {"latitude": 4.628499574, "longitude": -74.05987781}, "open": true}, {"name": "TEUSAQUILLO", "address": "KR 19 # 32-37", "location": {"latitude": 4.620731258, "longitude": -74.07422323}, "open": true}, {"name": "COLEGIO LA GIRALDA", "address": "CLL 1 No 3-60", "location": {"latitude": 0.0, "longitude": 0.0}, "open": true}, {"name": "EL QUINDIO", "address": "CL 46 G SUR # 16 A-01 ESTE", "location": {"latitude": 4.537528371, "longitude": -74.08276028}, "open": true}, {"name": "ZONA FRANCA", "address": "CLL 14 A # 108 - 78", "location": {"latitude": 4.671739569, "longitude": -74.15965763}, "open": true}, {"name": "CINCO DE NOVIEMBRE", "address": "CLL 39A SUR No 39A-12", "location": {"latitude": 0.0, "longitude": 0.0}, "open": true}, {"name": "MILENTA", "address": "KR 52 C # 19 A-76 SUR", "location": {"latitude": 4.609531985, "longitude": -74.12565623}, "open": true}, {"name": "EL BOSQUE", "address": "TR 1 ESTE NO 85 - 86 SUR", "location": {"latitude": 4.506, "longitude": -74.1031}, "open": true}, {"name": "LA ESTRADA", "address": "KR 69 C # 69-20", "location": {"latitude": 4.678782291, "longitude": -74.0915258}, "open": false}, {"name": "JARDIN INFANTIL ISLA DEL SOL", "address": "CLL 67 B SUR 63-15", "location": {"latitude": 0.0, "longitude": 0.0}, "open": true}, {"name": "MARCO FIDEL SUAREZ", "address": "TV. 13 G BIS # 46-35 SUR", "location": {"latitude": 4.567488806, "longitude": -74.11625148}, "open": true}, {"name": "SURBANA", "address": "AV CLL 57 R Sur # 72 D 12", "location": {"latitude": 4.595875248, "longitude": -74.16760415}, "open": false}, {"name": "PUENTE LARGO-EMMANUEL D.ALZON", "address": "Transversal 56 No. 114 - 50", "location": {"latitude": 4.697877997, "longitude": -74.0672237}, "open": true}, {"name": "NUEVA ARGENTINA", "address": "CL 72 SUR # 47 B-09", "location": {"latitude": 4.573170804, "longitude": -74.16226245}, "open": true}, {"name": "CEDRO GOLF", "address": "CARRERA 7A No. 150-85", "location": {"latitude": 4.724973756, "longitude": -74.02625468}, "open": true}, {"name": "PATIO BONITO", "address": "Calle 1 Bis Sur  No. 87 - 84", "location": {"latitude": 4.640575397, "longitude": -74.1603348}, "open": false}, {"name": "SIETE DE AGOSTO", "address": "KR 24 # 63 C-69", "location": {"latitude": 4.654237269, "longitude": -74.07200912}, "open": true}, {"name": "MARISCAL SUCRE SEDE B", "address": "KR 2  # 44 A - 20-KR 2  # 44 - 36", "location": {"latitude": 4.629974673, "longitude": -74.05960504}, "open": true}, {"name": "PABLO VI II ETAPA", "address": "KR 57 # 56 – 36", "location": {"latitude": 4.650396893, "longitude": -74.08938225}, "open": false}, {"name": "UNIV. JORGE TADEO LOZANO", "address": "CRA 4 No 22 INT 1 ED. MODULO 21", "location": {"latitude": 0.0, "longitude": 0.0}, "open": true}, {"name": "REPUBLICA DEL CANADA", "address": "KR 13 D BIS ESTE # 50-07 SUR", "location": {"latitude": 4.536117589, "longitude": -74.0874289}, "open": true}, {"name": "RECODO", "address": "CLL 14 B # 119 A 17", "location": {"latitude": 4.68005, "longitude": -74.165776}, "open": false}, {"name": "CASA COMUNAL CIUDAD JARDIN", "address": "CRA 12F No 19-37 SUR", "location": {"latitude": 0.0, "longitude": 0.0}, "open": true}, {"name": "EL TEJAR", "address": "KR 52 D # 24-50 SUR", "location": {"latitude": 4.608883874, "longitude": -74.1273105}, "open": false}, {"name": "VILLA HERMOSA", "address": "CL 97 SUR # 6 F-08 ESTE", "location": {"latitude": 4.493993466, "longitude": -74.10233281}, "open": false}, {"name": "LA ESTRADITA", "address": "CL 68 # 69-10", "location": {"latitude": 4.677303044, "longitude": -74.09140469}, "open": true}, {"name": "LICEO SANTA BERNARDITA", "address": "DIAG. 51A SUR No 54A-32", "location": {"latitude": 0.0, "longitude": 0.0}, "open": true}, {"name": "EL SOCORRO SUR", "address": "CL 50 B SUR # 13 A-32", "location": {"latitude": 4.563060181, "longitude": -74.12403675}, "open": false}, {"name": "NUEVO CHILE", "address": "CL 56 SUR # 72 G-20", "location": {"latitude": 4.603234523, "longitude": -74.16630527}, "open": false}, {"name": "FLORESTA NORTE-JULIO FLOREZ", "address": "Carrera 68 B  No. 94 - 12", "location": {"latitude": 4.687172084, "longitude": -74.07756813}, "open": false}, {"name": "LA ESTANCIA", "address": "CL 59 A Sur #75B -75 -CL 59 Sur #75 D - 07", "location": {"latitude": 4.592635705, "longitude": -74.1761269}, "open": false}, {"name": "BUENAVISTA", "address": "KR 5 B # 189 B-30", "location": {"latitude": 4.766667044, "longitude": -74.02573685}, "open": false}, {"name": "FRANCISCO JOSE DE CALDAS", "address": "CLL 35C SUR NO 78 N - 10", "location": {"latitude": 4.626378072, "longitude": -74.1530988}, "open": true}, {"name": "BENJAMIN HERRERA", "address": "KR 28 # 63-64", "location": {"latitude": 4.652273764, "longitude": -74.0756793}, "open": true}, {"name": "BETHLEMITAS-CALLE 65", "address": "CRA 5 No 65-55", "location": {"latitude": 0.0, "longitude": 0.0}, "open": true}, {"name": "RAFAEL NUÑEZ", "address": "CL 44  53 - 37", "location": {"latitude": 4.644448436, "longitude": -74.09213475}, "open": true}, {"name": "UNIV. INCCA DE COLOMBIA", "address": "CRA 13 No 13-65", "location": {"latitude": 0.0, "longitude": 0.0}, "open": true}, {"name": "LA GLORIA", "address": "CL 48 B Sur 11 - 14 Este", "location": {"latitude": 4.544259, "longitude": -74.088336}, "open": false}, {"name": "Santa Teresa Centro", "address": "Carrera 99  No. 19 -72", "location": {"latitude": 4.674242789, "longitude": -74.14270188}, "open": true}, {"name": "ALQUERIA", "address": "CL 40 B SUR # 52 C-60", "location": {"latitude": 4.599676453, "longitude": -74.13432403}, "open": false}, {"name": "VALLES DE CAFAM", "address": "CL 92 SUR # 14 D-87", "location": {"latitude": 4.5077, "longitude": -74.1181}, "open": true}, {"name": "LAS FERIAS", "address": "CL 73 BIS # 68 G-27", "location": {"latitude": 4.680738359, "longitude": -74.08707653}, "open": false}, {"name": "COL COOPERATIVO VENECIA", "address": "DIAG. 47 A SUR No 53A-95", "location": {"latitude": 0.0, "longitude": 0.0}, "open": true}, {"name": "MOLINOS DEL SUR", "address": "CL 49 D BIS SUR # 5 X-02", "location": {"latitude": 4.555161542, "longitude": -74.11787294}, "open": false}, {"name": "SANTA FE DE BOSA", "address": "KR 102 A # 56 F 34 Sur", "location": {"latitude": 4.641116339, "longitude": -74.19518693}, "open": false}, {"name": "PASADENA-LOS TRES ELEFANTES", "address": "Carrera 53 No. 102A 77", "location": {"latitude": 4.691481952, "longitude": -74.06280725}, "open": false}, {"name": "EL PARAISO", "address": "KR 27 B # 71 C-12 SUR", "location": {"latitude": 4.552414115, "longitude": -74.15905408}, "open": false}, {"name": "CANAIMA", "address": "CLL 195 No 19-50 VIA PUB-CLL 195 No 20-91 VIA PUB", "location": {"latitude": 4.772777383, "longitude": -74.04120657}, "open": true}, {"name": "BANDERAS", "address": "CL 3 # 78 G-50", "location": {"latitude": 4.628930236, "longitude": -74.1473568}, "open": false}, {"name": "POLIDEPORTIVO  POLO", "address": "CLL 86 A NO 24 - 06", "location": {"latitude": 4.674305852, "longitude": -74.06307441}, "open": true}, {"name": "U. SANTO TOMAS CLAUSTRO", "address": "CRA 9 No 51-11", "location": {"latitude": 0.0, "longitude": 0.0}, "open": true}, {"name": "CIUDAD SALITRE", "address": "AV CRA 60 NO 24 - 09 ENTRADA No. 2", "location": {"latitude": 4.647206724, "longitude": -74.09977765}, "open": false}, {"name": "JUAN REY", "address": "CL 70 SUR # 13 B-27 ESTE", "location": {"latitude": 4.522409047, "longitude": -74.08974718}, "open": true}, {"name": "La Felicidad", "address": "CL 19 No. 79 - 37", "location": {"latitude": 4.65878927, "longitude": -74.13007482}, "open": true}, {"name": "ALCALA", "address": "KR 51 C # 33-41 SUR", "location": {"latitude": 4.60205623, "longitude": -74.12692456}, "open": true}, {"name": "LA FISCALA", "address": "CL 65 SUR # 5-65", "location": {"latitude": 4.5338, "longitude": -74.1117}, "open": true}, {"name": "BONANZA", "address": "CL 78 BIS # 69 T-45", "location": {"latitude": 4.690103467, "longitude": -74.08676327}, "open": true}, {"name": "COOPERATIVO NUEVO MUZU", "address": "CRA 59 No 51B-46 SUR", "location": {"latitude": 0.0, "longitude": 0.0}, "open": true}, {"name": "CIUDAD BOCHICA SUR", "address": "TV 5 J # 48F-69 Sur -TV 5 LBis#48F - 69 Sur", "location": {"latitude": 4.557856175, "longitude": -74.11184213}, "open": true}, {"name": "EL PORVENIR", "address": "CL 51 SUR # 91 D-56", "location": {"latitude": 4.635891867, "longitude": -74.18368543}, "open": false}, {"name": "NUEVA ZELANDIA", "address": "CL 181 # 51 A-31", "location": {"latitude": 4.759132003, "longitude": -74.04947491}, "open": false}, {"name": "VEREDA QUIBA", "address": "KM 20 VÍA A QUIBA", "location": {"latitude": 4.5283, "longitude": -74.1662}, "open": true}, {"name": "ALESSANDRO VOLTA", "address": "CLL 119 No 4-79", "location": {"latitude": 4.695159453, "longitude": -74.03056436}, "open": true}, {"name": "PROSPERO PINZON", "address": "Calle 35 C Sur  No.78 F - 81", "location": {"latitude": 4.623844779, "longitude": -74.14829544}, "open": true}, {"name": "ISERRA 100", "address": "TRANSV. 55 No 98A-66", "location": {"latitude": 0.0, "longitude": 0.0}, "open": true}, {"name": "EL AQUINATE U. SANTO TOMAS", "address": "CRA 9A No 63-28", "location": {"latitude": 0.0, "longitude": 0.0}, "open": true}, {"name": "CORPUS CHRISTI", "address": "CL 57B NO 34-42 Salón Parroquial CL 57B NO 37-42", "location": {"latitude": 4.648151378, "longitude": -74.08201607}, "open": true}, {"name": "VILLA DE LOS ALPES", "address": "KR 3 B # 35-02 SUR", "location": {"latitude": 4.561479988, "longitude": -74.09802201}, "open": true}, {"name": "Navarra Modelia", "address": "Carrera 74 # 24B-80", "location": {"latitude": 4.666126146, "longitude": -74.11713951}, "open": true}, {"name": "SANTA RITA", "address": "KR 41 # 34-35 SUR", "location": {"latitude": 4.597976955, "longitude": -74.12367318}, "open": false}, {"name": "PORTAL USME", "address": "KR 1Este# 65D - 08 Sur -KR11#65C- 50Sur", "location": {"latitude": 4.5326, "longitude": -74.117}, "open": true}, {"name": "STA. MARIA DEL LAGO", "address": "CL 74 B # 73 A-20", "location": {"latitude": 4.691539389, "longitude": -74.09464686}, "open": true}, {"name": "LICEO CAMPESTRE CAFAM", "address": "DIAG. 58 SUR No 29-26", "location": {"latitude": 0.0, "longitude": 0.0}, "open": true}, {"name": "LOS MOLINOS II SECTOR", "address": "TV. 5 A # 48 M-50 SUR", "location": {"latitude": 4.553536874, "longitude": -74.10839917}, "open": true}, {"name": "EL RECREO", "address": "KR 92 # 72-42 SUR", "location": {"latitude": 4.627533565, "longitude": -74.20148261}, "open": false}, {"name": "SAN LUIS SUBA", "address": "CARRERA 92 No. 152 A 52", "location": {"latitude": 4.749271075, "longitude": -74.08308311}, "open": false}, {"name": "MANUELA BELTRAN", "address": "KR 45C # 69D-15Sur -CL 69 D Sur #  45 B -37", "location": {"latitude": 4.572442134, "longitude": -74.15725487}, "open": true}, {"name": "LA CAROLINA", "address": "CALLE 127 C No. 9A-03", "location": {"latitude": 4.707437128, "longitude": -74.03462457}, "open": false}, {"name": "KENNEDY LEY", "address": "KR 78 NO 35-30 SUR", "location": {"latitude": 4.62342255, "longitude": -74.14812765}, "open": true}, {"name": "SAN MIGUEL", "address": "CLL 65 No 52-20", "location": {"latitude": 0.0, "longitude": 0.0}, "open": true}, {"name": "COLEGIO NUEVO GIMNASIO", "address": "CLL 80 No 11-70", "location": {"latitude": 0.0, "longitude": 0.0}, "open": true}, {"name": "LICEO PARROQUIAL SARA ZAPATA", "address": "KR 22 # 51-68 / KR 21  # 51 - 41", "location": {"latitude": 4.63987457, "longitude": -74.07227933}, "open": true}, {"name": "LOS LIBERTADORES", "address": "calle 55 SUR # 10A 29 ESTE", "location": {"latitude": 4.534469747, "longitude": -74.09095251}, "open": false}, {"name": "Modelia Real", "address": "CL 24 D  # 82 - 13 -KR 82  # 24 C - 29", "location": {"latitude": 4.670742796, "longitude": -74.12110125}, "open": true}, {"name": "AUTOPISTA SUR", "address": "CLL 38 SUR NO 50A-70 / CRA 51 NO 37A-52 SUR*", "location": {"latitude": 4.598305118, "longitude": -74.12709039}, "open": false}, {"name": "BRASILIA", "address": "KR12B  # 73B - 97Sur -KR12 B  # 73B - 31Sur", "location": {"latitude": 4.5176, "longitude": -74.1164}, "open": true}, {"name": "LA GRANJA", "address": "KR 84 # 75 A-09", "location": {"latitude": 4.698837374, "longitude": -74.10198771}, "open": true}, {"name": "NUESTRA SEÑORA LAS VICTORIAS", "address": "CRA 12B No 57-52 sur", "location": {"latitude": 0.0, "longitude": 0.0}, "open": true}, {"name": "PALERMO SUR", "address": "TV. 2 B BIS # 49 D-41 SUR", "location": {"latitude": 4.54370741, "longitude": -74.10976456}, "open": true}, {"name": "LA ESPERANZA", "address": "CL 77 A Sur # 86 - 40 - CL 78 Sur # 79 - 40", "location": {"latitude": 4.609537739, "longitude": -74.20575261}, "open": false}, {"name": "SAN CIPRIANO", "address": "Calle 166 Bis  No. 54 C - 08 Calle 166  No. 54 C - 08 *", "location": {"latitude": 4.748331153, "longitude": -74.05502678}, "open": false}, {"name": "FUNDACION UNIVERSI. LUIS AMIGO", "address": "Transversal 60 No. 128 A - 51", "location": {"latitude": 4.716676276, "longitude": -74.07362086}, "open": true}, {"name": "SIERRA MORENA", "address": "CL 70 SUR # 56-11", "location": {"latitude": 4.578039565, "longitude": -74.16485797}, "open": true}, {"name": "CRISTOBAL COLON", "address": "CLL 165 No. 8 A-03", "location": {"latitude": 4.741627791, "longitude": -74.02538954}, "open": true}, {"name": "LOS HEROES", "address": "Cl. 35 B Sur No. 73 A - 40 Int 1", "location": {"latitude": 4.61965483, "longitude": -74.14530272}, "open": false}, {"name": "PLAZA DE LOS ARTESANOS", "address": "CRA 60 No 63A-52", "location": {"latitude": 0.0, "longitude": 0.0}, "open": true}, {"name": "UNIVERSIDAD CATOLICA", "address": "CRA 13 No 47-49", "location": {"latitude": 0.0, "longitude": 0.0}, "open": true}, {"name": "ACEVEDO TEJADA", "address": "Carrera 32 A No. 27A-16/20", "location": {"latitude": 4.629894851, "longitude": -74.08132762}, "open": true}, {"name": "SAN PEDRO SUR ORIENTAL", "address": "KR 5 E # 26-91 SUR", "location": {"latitude": 4.564335138, "longitude": -74.08713764}, "open": true}, {"name": "La Aldea", "address": "Calle 22G # 117A - 38", "location": {"latitude": 4.688697909, "longitude": -74.15014624}, "open": true}, {"name": "LOS SAUCES", "address": "TV. 38 # 29 B-61 SUR", "location": {"latitude": 4.596838563, "longitude": -74.11877678}, "open": true}, {"name": "EL CORTIJO (LOCALIDAD 5)", "address": "CR 2A NO 74B Bis-00Sur / CL 74B Sur NO 14H-25", "location": {"latitude": 4.515124366, "longitude": -74.11877288}, "open": true}, {"name": "FLORENCIA", "address": "DG. 74 B # 87-40", "location": {"latitude": 4.699535061, "longitude": -74.10539344}, "open": false}, {"name": "SANTA CECILIA DE TUNJUELITO", "address": "CRA 11 No 52-41 SUR", "location": {"latitude": 0.0, "longitude": 0.0}, "open": true}, {"name": "VILLA MAYOR LA NUEVA", "address": "DG. 41 SUR # 34 A -90", "location": {"latitude": 4.58904566, "longitude": -74.12689192}, "open": true}, {"name": "FRANCISCO DE PAULA SANTANDER", "address": "CL 61 SUR # 80 I-40", "location": {"latitude": 4.610841375, "longitude": -74.18484677}, "open": false}, {"name": "LA GAITANA", "address": "TV. 126 # 134-88", "location": {"latitude": 4.742487784, "longitude": -74.10828003}, "open": false}, {"name": "SOTAVENTO", "address": "CR 17 F NO 73A - 31 SUR", "location": {"latitude": 4.544496463, "longitude": -74.13919947}, "open": true}, {"name": "DIVINO MAESTRO A", "address": "CRA 8 C No. 163 B -20", "location": {"latitude": 4.739987809, "longitude": -74.02774514}, "open": true}, {"name": "COLEGIO OEA", "address": "Carrera 72 L  No. 34 - 19 Sur", "location": {"latitude": 4.618048223, "longitude": -74.14138883}, "open": true}, {"name": "CAFAM AV. 68", "address": "AV CRA 68 No 96-50", "location": {"latitude": 0.0, "longitude": 0.0}, "open": true}, {"name": "UNIVERSIDAD DE LA SALLE", "address": "CRA 5 No 59A-44", "location": {"latitude": 0.0, "longitude": 0.0}, "open": true}, {"name": "BIBLIOTECA VIRGILIO BARCO", "address": "AV CRA. 60  No. 57 - 60", "location": {"latitude": 4.653274788, "longitude": -74.09093005}, "open": true}, {"name": "VILLA DEL CERRO", "address": "CL 46 A SUR # 3 B-30 ESTE", "location": {"latitude": 4.544818699, "longitude": -74.0960901}, "open": true}, {"name": "VAN UDEN CALLE 13", "address": "Carrera 124 # 17 - 05", "location": {"latitude": 4.688201861, "longitude": -74.16080745}, "open": true}, {"name": "CARRERA CENTRO COMERCIAL", "address": "AV. LAS AMÉRICAS # 50-15", "location": {"latitude": 4.627147926, "longitude": -74.10992304}, "open": true}, {"name": "TENERIFE", "address": "Calle 95 Sur No. 14B - 64", "location": {"latitude": 4.5039, "longitude": -74.1188}, "open": true}, {"name": "SANTA ROSITA", "address": "CL 75 # 90-75", "location": {"latitude": 4.701851571, "longitude": -74.10798683}, "open": true}, {"name": "ALCALDIA LOCAL DE TUNJUELITO", "address": "CLL 51 SUR No 7-35", "location": {"latitude": 0.0, "longitude": 0.0}, "open": true}, {"name": "GRANJAS DE SAN PABLO", "address": "CL 40 D SUR # 12 J-39", "location": {"latitude": 4.569326769, "longitude": -74.11437833}, "open": false}, {"name": "PABLO DE TARSO", "address": "KR78 J Bis#65J - 04Sur -CL65 J Sur # 78J - 21", "location": {"latitude": 4.604071512, "longitude": -74.18694832}, "open": true}, {"name": "SABANA DE TIBABUYES", "address": "Calle 143 A  No. 118 - 50", "location": {"latitude": 4.749688478, "longitude": -74.10710165}, "open": false}, {"name": "SANTO DOMINGO", "address": "CL 62 B Sur # 77C -11 -CL 68 B Sur # 77 A - 07", "location": {"latitude": 4.578821447, "longitude": -74.17885064}, "open": true}, {"name": "DIVINO MAESTRO B", "address": "CLL164 No 7F-08 / CR 7 F No 164-51", "location": {"latitude": 4.739878638, "longitude": -74.0250233}, "open": true}, {"name": "FLORALIA", "address": "TV. 68 C # 31-26 SUR", "location": {"latitude": 4.608704879, "longitude": -74.13231109}, "open": false}, {"name": "IMPRENTA NACIONAL", "address": "CARRERA 66 No 24-09", "location": {"latitude": 4.64831, "longitude": -74.10487}, "open": true}, {"name": "CANADA GUIRA", "address": "CL 48 SUR # 2-27 ESTE", "location": {"latitude": 4.544586099, "longitude": -74.09892876}, "open": true}, {"name": "ATAHUALPA", "address": "CARRERA 116 No 22I-56", "location": {"latitude": 4.688046, "longitude": -74.148272}, "open": true}, {"name": "SAN ANDRESITO", "address": "CR 38 NO 10 - 90", "location": {"latitude": 4.617098261, "longitude": -74.10167053}, "open": true}, {"name": "GRAN YOMASA", "address": "Calle 81 C  Sur No. 8 A - 06", "location": {"latitude": 4.5085, "longitude": -74.1097}, "open": true}, {"name": "QUIRIGUA", "address": "KR 92 # 82-20", "location": {"latitude": 4.707626716, "longitude": -74.10393167}, "open": false}, {"name": "PORFIRIO BARBA JACOB", "address": "CRA 18 No 54-14 SUR", "location": {"latitude": 0.0, "longitude": 0.0}, "open": true}, {"name": "RESURRECCION", "address": "DG 32 B Sur # 12B-36 -CL 36 D Sur#11D- 40", "location": {"latitude": 4.568625149, "longitude": -74.10959639}, "open": true}, {"name": "ATALAYAS", "address": "CL 61 SUR # 103-33", "location": {"latitude": 4.639634936, "longitude": -74.19999521}, "open": false}, {"name": "COLEGIO-HIJAS DE CRISTO REY", "address": "Av Calle 138  No. 58 D- 50", "location": {"latitude": 4.729333613, "longitude": -74.0671566}, "open": false}, {"name": "VILLA GLORIA SUR", "address": "KR 18 M # 69 J-25 SUR", "location": {"latitude": 4.553459471, "longitude": -74.1527506}, "open": true}, {"name": "LAS MARGARITAS", "address": "CALLE 151 No. 15-70", "location": {"latitude": 4.732225169, "longitude": -74.04085354}, "open": true}, {"name": "CARVAJAL II", "address": "Calle 25 Sur  No. 69 C - 34", "location": {"latitude": 4.615341909, "longitude": -74.13556547}, "open": false}, {"name": "COLEGIO DEL PILAR", "address": "CLL 62 No 27A-12", "location": {"latitude": 0.0, "longitude": 0.0}, "open": true}, {"name": "ARBOLEDA SUR", "address": "KR 9 A # 14-04 SUR", "location": {"latitude": 4.579050228, "longitude": -74.09102756}, "open": true}, {"name": "HAYUELOS JUMBO", "address": "AV CARRERA 86 No 19A-50", "location": {"latitude": 4.662305, "longitude": -74.132745}, "open": true}, {"name": "SALÓN COMUNAL COLÓN", "address": "CR 53 F NO 4 G - 04", "location": {"latitude": 4.599144229, "longitude": -74.12714617}, "open": true}, {"name": "CABAÑAS", "address": "CLL 80A SUR NO 5 - 15", "location": {"latitude": 4.510122451, "longitude": -74.10494671}, "open": true}, {"name": "LA ESPAÑOLA", "address": "KR 82 A # 82 D-34", "location": {"latitude": 4.703397457, "longitude": -74.0966299}, "open": true}, {"name": "RAFAEL URIBE LA PAZ", "address": "DG. 52 A SUR # 4 P-10", "location": {"latitude": 4.54327, "longitude": -74.11334611}, "open": false}, {"name": "EL RECUERDO SANTAFE", "address": "CL 58 Sur#104A - 04 -CL 58 Sur# 104 A - 50", "location": {"latitude": 4.64148877, "longitude": -74.19762748}, "open": true}, {"name": "CENTRO COMERCIAL MAZUREN", "address": "Carrera 46  No. 152 - 46", "location": {"latitude": 4.736490337, "longitude": -74.05005202}, "open": false}, {"name": "GALICIA", "address": "CL 60 A SUR # 73-31", "location": {"latitude": 4.59145375, "longitude": -74.1694426}, "open": true}, {"name": "ALTA BLANCA", "address": "CALLE 159 No. 8-56", "location": {"latitude": 4.734933731, "longitude": -74.02853788}, "open": true}, {"name": "VILLA ADRIANA", "address": "CL 20 SUR # 68 D-36", "location": {"latitude": 4.612923953, "longitude": -74.12908471}, "open": false}, {"name": "UNIVERSIDAD ECCI", "address": "CRA 19 No 48-32", "location": {"latitude": 0.0, "longitude": 0.0}, "open": true}, {"name": "20 DE JULIO SEDE B", "address": "KR 7 A # 24 - 01 Sur-CL 25 Sur  # 7 - 76", "location": {"latitude": 4.571909611, "longitude": -74.09448281}, "open": true}, {"name": "INTEGRADO SEDE B", "address": "CLL 22F No 109-29", "location": {"latitude": 0.0, "longitude": 0.0}, "open": true}, {"name": "COLONIA ORIENTAL", "address": "CLL 4 A  NO 51 A - 90", "location": {"latitude": 4.622191017, "longitude": -74.1150211}, "open": true}, {"name": "TEJARES", "address": "KR 4Este# 75C - 81Sur -CL75C Bis Sur#5- 52", "location": {"latitude": 4.513267076, "longitude": -74.10773311}, "open": true}, {"name": "MINUTO DE DIOS", "address": "TV. 74 # 81 C-05", "location": {"latitude": 4.698830531, "longitude": -74.09049612}, "open": true}, {"name": "SAN AGUSTIN SUR", "address": "CL 49 C SUR # 5 C-41", "location": {"latitude": 4.548384976, "longitude": -74.11348713}, "open": true}, {"name": "FE Y ALEGRIA SAN IGNACIO", "address": "CL 56 F SUR # 91 D-14", "location": {"latitude": 4.632807228, "longitude": -74.1897817}, "open": true}, {"name": "TEJARES NORTE", "address": "CL 183 # 54 D-25", "location": {"latitude": 4.763521353, "longitude": -74.04903178}, "open": false}, {"name": "ARBORIZADORA ALTA", "address": "KR 42 # 72 C - 24 Sur -KR 42 # 73 A -10 Sur", "location": {"latitude": 4.568541146, "longitude": -74.16284384}, "open": true}, {"name": "COLEGIO TOBERIN B", "address": "CRA 14 C No. 164-75", "location": {"latitude": 4.743192579, "longitude": -74.03563945}, "open": true}, {"name": "LAS AMERICAS", "address": "KR 71 C NO 3 A-41", "location": {"latitude": 4.62639091, "longitude": -74.13569052}, "open": true}, {"name": "GIMNASIO CENTRO NARIÑO", "address": "AV LAS AMERICAS No 33-50", "location": {"latitude": 0.0, "longitude": 0.0}, "open": true}, {"name": "SAN JUAN BOSCO SANTA ANA", "address": "CARRERA 5A No.11-38 SUR", "location": {"latitude": 4.577844964, "longitude": -74.08594079}, "open": true}, {"name": "ACUNAR", "address": "CRA 104 No 13D-35", "location": {"latitude": 0.0, "longitude": 0.0}, "open": true}, {"name": "SALÓN COMUNAL LA TRINIDAD", "address": "CR 58 NO 4B - 31", "location": {"latitude": 4.622783, "longitude": -74.118845}, "open": true}, {"name": "COL. FERNANDO GONZALEZ OCHOA", "address": "Carrera 4  No. 89 - 43 Sur", "location": {"latitude": 4.502709002, "longitude": -74.10693516}, "open": true}, {"name": "LA SERENA", "address": "KR 85 # 88-99", "location": {"latitude": 4.708695917, "longitude": -74.09486712}, "open": true}, {"name": "COVIVIENDA DEL SURORIENTE", "address": "DG 48 Z SUR # 4 B-10", "location": {"latitude": 4.547564555, "longitude": -74.11003663}, "open": false}, {"name": "CIUDADELA EL PORVENIR", "address": "CL 52 SUR # 97 C-35", "location": {"latitude": 4.640829727, "longitude": -74.18721155}, "open": true}, {"name": "COLEGIO CELESTIN FREINET", "address": "CLL 136 No 136 A - 12", "location": {"latitude": 4.745358196, "longitude": -74.11415668}, "open": false}, {"name": "CASAVIANCA", "address": "KR 77 C # 57 U-08 SUR", "location": {"latitude": 4.595560929, "longitude": -74.18277625}, "open": false}, {"name": "EL PITE", "address": "CL 171 B   # 6 B - 16-KR 6 C   # 171 - 39", "location": {"latitude": 4.749087949, "longitude": -74.02255561}, "open": true}, {"name": "LA FLORESTA SUR", "address": "KR 68 B BIS # 1-09 SUR", "location": {"latitude": 4.620820643, "longitude": -74.12737558}, "open": true}, {"name": "COLEGIO SANTA CLARA", "address": "AV CRA 28 No 35-35", "location": {"latitude": 0.0, "longitude": 0.0}, "open": true}, {"name": "SAN GERONIMO", "address": "CARRERA 18 ESTE #13-42 SUR", "location": {"latitude": 4.566737839, "longitude": -74.07113663}, "open": true}, {"name": "CASA PENSAMIENTO INTERCULTURAL", "address": "DIAG. 15D No 98-40", "location": {"latitude": 0.0, "longitude": 0.0}, "open": true}, {"name": "PRIMAVERA Y GORGONZOLA", "address": "CARRERA 41B No 5-57", "location": {"latitude": 4.616347, "longitude": -74.107682}, "open": true}, {"name": "ALFONSO LOPEZ", "address": "KR 7CEste# 92 - 48Sur -KR 7C Este #90A -35Sur", "location": {"latitude": 4.497954679, "longitude": -74.10063894}, "open": true}, {"name": "BACHUE", "address": "CLL 95D No 98-96", "location": {"latitude": 4.71775943, "longitude": -74.10122119}, "open": true}, {"name": "MARRUECOS APARTAMENTOS", "address": "CL 48 P #5 L- 40Sur -CL 48 Q Sur #  5 J - 86", "location": {"latitude": 4.560441443, "longitude": -74.1134183}, "open": false}, {"name": "CARLOS PIZARRO LEON GOMEZ", "address": "CL 72 SUR # 100 A-71", "location": {"latitude": 4.635596363, "longitude": -74.20489671}, "open": false}, {"name": "COLEGIO ALVARO GOMEZ", "address": "CRA 100 A No 130-18", "location": {"latitude": 4.730495104, "longitude": -74.09694251}, "open": false}, {"name": "CASONA DEL LIBERTADOR", "address": "CL 68 D BIS A SUR # 49 F- 70", "location": {"latitude": 4.579154946, "longitude": -74.15892887}, "open": false}, {"name": "EL CODITO", "address": "CALLE 181 No. 6-03- CALLE 182 No. 6-30", "location": {"latitude": 4.75770047, "longitude": -74.02430346}, "open": true}, {"name": "MARSELLA", "address": "KR 69 # 7-90", "location": {"latitude": 4.632151289, "longitude": -74.12731737}, "open": false}, {"name": "SURAMERICA", "address": "CRA 2A No.29A-29 SUR", "location": {"latitude": 4.565187502, "longitude": -74.09340965}, "open": true}, {"name": "COLEGIO LUIS ANGEL ARANGO", "address": "CLL 23G No 103-60", "location": {"latitude": 0.0, "longitude": 0.0}, "open": true}, {"name": "EL REMANZO", "address": "AC 8 SUR No 38A-46", "location": {"latitude": 0.0, "longitude": 0.0}, "open": true}, {"name": "LA ALBORADA", "address": "Carrera 4 Este No. 90 D - 24 Sur", "location": {"latitude": 4.501801873, "longitude": -74.10777684}, "open": true}, {"name": "QUIRIGUA (PLAZA DE MERCADO)", "address": "KR 92 # 89 - 79 - CL 89 Bis  # 91 - 20", "location": {"latitude": 4.712601385, "longitude": -74.0982661}, "open": true}, {"name": "SALON COMUNAL LA MARQUEZA", "address": "DG 49 B BIS A SUR # 1 B-35 ESTE", "location": {"latitude": 4.544167619, "longitude": -74.10743073}, "open": false}, {"name": "NUEVO CARLOS ALBAN", "address": "CL 72 A Sur  # 80 J - 20 -KR 80 J # 72 - 19 Sur", "location": {"latitude": 4.607890349, "longitude": -74.19703754}, "open": true}, {"name": "COLEGIO DELIA ZAPATA OLIVELLA", "address": "Calle 144 C  No. 141 A - 51", "location": {"latitude": 4.753303517, "longitude": -74.11329062}, "open": false}, {"name": "MEISSEN", "address": "KR 16 C # 62 - 35Sur -KR 16 C # 62 - 81 Sur", "location": {"latitude": 4.556949816, "longitude": -74.13556256}, "open": true}, {"name": "VERBENAL SANTA MARIA", "address": "CRA 11 No 185B-17", "location": {"latitude": 4.761524626, "longitude": -74.03300938}, "open": true}, {"name": "ALOHA", "address": "CL 7 A BIS # 71 A-20", "location": {"latitude": 4.632748013, "longitude": -74.13310369}, "open": false}, {"name": "SAN VICENTE COLSUBSIDIO", "address": "TRANSVERSAL 6 C ESTE #33-70 SUR", "location": {"latitude": 4.555262146, "longitude": -74.08824984}, "open": true}, {"name": "FERROCAJA", "address": "CLL 22A BIS No 93A-06", "location": {"latitude": 0.0, "longitude": 0.0}, "open": true}, {"name": "COLEGIO ROMULO GALLEGO", "address": "CRA 31B No 1-13", "location": {"latitude": 0.0, "longitude": 0.0}, "open": true}, {"name": "UVAL - PUERTA AL LLANO", "address": "KR 6HEste#114-88Sur - TV 7Este#107 A - 50 Sur", "location": {"latitude": 4.486800366, "longitude": -74.1032042}, "open": true}, {"name": "BACHUE II - BOCHICA I", "address": "CL 83 # 95 D-04", "location": {"latitude": 4.712266324, "longitude": -74.10589613}, "open": true}, {"name": "MIRADOR DE MARROCOS", "address": "TV. 5 P # 48 J-31 SUR", "location": {"latitude": 4.555234037, "longitude": -74.10750259}, "open": false}, {"name": "LAURELES II", "address": "CL73 FSur # 80N Bis - 49 -CL73 FSur # 80N- 41", "location": {"latitude": 4.609987843, "longitude": -74.19969262}, "open": true}, {"name": "NUEVA ESTACION", "address": "CL 63 SUR   No.  78J - 10", "location": {"latitude": 4.605123766, "longitude": -74.18234172}, "open": true}, {"name": "LA AGUADITA", "address": "CL 128 B # 87 D-05", "location": {"latitude": 4.720728256, "longitude": -74.08729771}, "open": false}, {"name": "POTOSI (LA LAGUNA)", "address": "TV. 46 A # 79 D-15 SUR", "location": {"latitude": 4.570731311, "longitude": -74.16940807}, "open": false}, {"name": "SALUDCOOP NORTE", "address": "CLL 181 No. 18 B-83", "location": {"latitude": 4.758068045, "longitude": -74.04044512}, "open": true}, {"name": "MANDALAY - COLEGIO KENNEDY", "address": "Calle 5  Sur No. 72 A - 69", "location": {"latitude": 4.620046679, "longitude": -74.14042345}, "open": true}, {"name": "GUACAMAYAS II", "address": "CALLE 37 A BIS SUR # 2A-04", "location": {"latitude": 4.557905932, "longitude": -74.09907877}, "open": true}, {"name": "EL CHARCO", "address": "CLL 17F No 128-45", "location": {"latitude": 0.0, "longitude": 0.0}, "open": true}, {"name": "SALON COMUNAL VERAGUAS", "address": "CLL 4A No 32A-77", "location": {"latitude": 0.0, "longitude": 0.0}, "open": true}, {"name": "VILLA ALEMANIA", "address": "CL 111ASur#4B-07Este -CL111A BisSur  # 3 a -07", "location": {"latitude": 4.49012, "longitude": -74.113309}, "open": true}, {"name": "VILLA GLADYS", "address": "CL 65 # 112 A-39", "location": {"latitude": 4.705123218, "longitude": -74.13427656}, "open": false}, {"name": "SAN JUANITO", "address": "AV. CARACAS # 38-02 SUR", "location": {"latitude": 4.575830047, "longitude": -74.11902588}, "open": true}, {"name": "LA INDEPENDENCIA", "address": "KR 87C# 69A-80Sur -CL 69BSur # 87 B - 32", "location": {"latitude": 4.621176056, "longitude": -74.19492894}, "open": true}, {"name": "BOSQUES DE SUBA", "address": "CL 132 C # 92 A-71", "location": {"latitude": 4.732399587, "longitude": -74.08783213}, "open": false}, {"name": "ALTOS DE JALISCO", "address": "KR 18 K BIS # 61 B-52 SUR", "location": {"latitude": 4.555523725, "longitude": -74.1386772}, "open": true}, {"name": "TORCA", "address": "KM 12 CARRET CTRAL del NTE / 0 0-00 2334*", "location": {"latitude": 4.800040486, "longitude": -74.02609112}, "open": true}, {"name": "PIO XII", "address": "KR 79 F # 6 B -30", "location": {"latitude": 4.633696402, "longitude": -74.15308929}, "open": false}, {"name": "ESCUELA LA VICTORIA B", "address": "CR 3A ESTE NO 35-37 SUR/CR 3A ESTE NO 37A-59SUR", "location": {"latitude": 4.554749989, "longitude": -74.09351203}, "open": true}, {"name": "MULTIPLAZA", "address": "CLL 19A No 72-57", "location": {"latitude": 0.0, "longitude": 0.0}, "open": true}, {"name": "INSTITUTO DE INTEGRACION CULTURAL", "address": "CLL 5C No 31C-16", "location": {"latitude": 0.0, "longitude": 0.0}, "open": true}, {"name": "USME - CENTRO", "address": "CLL 104 SUR No 14-90", "location": {"latitude": 0.0, "longitude": 0.0}, "open": true}, {"name": "EL CORTIJO (LOCALIDAD 10)", "address": "KR 116 # 80 A - 69 -CL 80 A # 116 B - 10", "location": {"latitude": 4.725607447, "longitude": -74.12238108}, "open": false}, {"name": "PROVIDENCIA", "address": "TV 11 A #49D - 12 Sur -TV 11 D #49D - 57Sur", "location": {"latitude": 4.561898366, "longitude": -74.12079793}, "open": true}, {"name": "BOSANOVA", "address": "CL 59B  SUR  No. 87B - 02", "location": {"latitude": 4.622469325, "longitude": -74.18844046}, "open": false}, {"name": "COL REPUBLICA DOMINICANA", "address": "CLl 131 A No 125 - 39", "location": {"latitude": 4.739256967, "longitude": -74.10898312}, "open": true}, {"name": "ESTRELLA DEL SUR", "address": "KR 18 D # 73-50 SUR", "location": {"latitude": 4.544337569, "longitude": -74.14521592}, "open": false}, {"name": "CARULLA 140", "address": "CLL 140 No. 11 - 20", "location": {"latitude": 4.718986, "longitude": -74.03573}, "open": false}, {"name": "CASTILLA", "address": "KR 78  C # 8 A-43", "location": {"latitude": 4.640183236, "longitude": -74.1419659}, "open": false}, {"name": "JUANA ESCOBAR SEDE A", "address": "KR 15 A Este # 57 A 16 Sur", "location": {"latitude": 4.532432612, "longitude": -74.0858147}, "open": true}, {"name": "SALITRE PLAZA", "address": "CRA 68B No 24-39", "location": {"latitude": 0.0, "longitude": 0.0}, "open": true}, {"name": "COLEGIO DISTRITAL SORRENTO", "address": "CLL 5B No 53C-74", "location": {"latitude": 0.0, "longitude": 0.0}, "open": true}, {"name": "BRAZUELOS", "address": "CRA 13 No 137D-40 SUR", "location": {"latitude": 0.0, "longitude": 0.0}, "open": true}, {"name": "SAN MARCOS", "address": "KR 77 A # 67-17", "location": {"latitude": 4.685785474, "longitude": -74.10400734}, "open": true}, {"name": "GUSTAVO RESTREPO", "address": "KR 12 H BIS B # 28 C - 24 SUR", "location": {"latitude": 4.573208389, "longitude": -74.10228275}, "open": true}, {"name": "LLANO ORIENTAL", "address": "CL 73 BSur #78ABis-15 -CL 73 BSur # 78A -15", "location": {"latitude": 4.602955796, "longitude": -74.19980122}, "open": true}, {"name": "LISBOA-COLEGIO DISTRITAL LISBOA", "address": "Carrera 151 A No. 132 A - 16", "location": {"latitude": 4.743313742, "longitude": -74.12165519}, "open": false}, {"name": "CARACOLI", "address": "CL 77 SUR # 73 D -12", "location": {"latitude": 4.572608262, "longitude": -74.17130151}, "open": true}, {"name": "COLEGIO SAN FRANCISCO CL 186", "address": "CLL 186 No 7-52", "location": {"latitude": 0.0, "longitude": 0.0}, "open": true}, {"name": "VILLANUEVA", "address": "CL 40 B SUR # 57-26", "location": {"latitude": 4.603381672, "longitude": -74.14099839}, "open": true}, {"name": "ROMA COLSUBSIDIO", "address": "CLL 48 Sur # 4 - 85 Este", "location": {"latitude": 4.542041578, "longitude": -74.0967175}, "open": true}, {"name": "PABLO NERUDA", "address": "CLL 16J No 99-95", "location": {"latitude": 0.0, "longitude": 0.0}, "open": true}, {"name": "LUIS CARLOS GALAN SARMIENTO", "address": "CLL 2A No 47-59", "location": {"latitude": 0.0, "longitude": 0.0}, "open": true}, {"name": "CDC JULIO CESAR SANCHEZ", "address": "AV CLL 91 SUR No 3C-34 ESTE", "location": {"latitude": 0.0, "longitude": 0.0}, "open": true}, {"name": "SAN IGNACIO", "address": "TV. 76 B # 51 A-57", "location": {"latitude": 4.674048266, "longitude": -74.11185503}, "open": false}, {"name": "SALÓN COMUNAL INGLES", "address": "CL 41 Sur  #  27 - 87 -KR 26 A  #  41 - 10 Sur", "location": {"latitude": 4.584815836, "longitude": -74.12425393}, "open": true}, {"name": "CARBONELL", "address": "DG. 71C BIS A SUR   No. 77G-15", "location": {"latitude": 4.599626927, "longitude": -74.19756285}, "open": false}, {"name": "UNIVERSIDAD UDCA", "address": "Calle 222  No. 55 - 09", "location": {"latitude": 4.800375635, "longitude": -74.04828344}, "open": true}, {"name": "SANTA ROSA", "address": "VDA Santa Rosa Zona RUR CIUD Bolívar VIA Pasquilla", "location": {"latitude": 4.3972, "longitude": -74.161}, "open": true}, {"name": "BUEN CONSEJO", "address": "CLL 104 No 17-22", "location": {"latitude": 0.0, "longitude": 0.0}, "open": true}, {"name": "JAIRO ANIBAL NIÑO", "address": "Cr 87H Bis No. 39-23 Sur Cr 87H Bis No.39A-23 Sur", "location": {"latitude": 4.636882654, "longitude": -74.16677432}, "open": false}, {"name": "LA GLORIA- ESCUELA ALTAMIRA", "address": "Calle 44 Sur No. 9 - 23 Este", "location": {"latitude": 4.5445, "longitude": -74.08959}, "open": true}, {"name": "CACIQUE HYNTIBA", "address": "CLL 17A No 99-53", "location": {"latitude": 0.0, "longitude": 0.0}, "open": true}, {"name": "CULTURA POPULAR", "address": "CLL 32 SUR No 51-12", "location": {"latitude": 0.0, "longitude": 0.0}, "open": true}, {"name": "VIA AL LLANO", "address": "CRA 4 ESTE No 83-3 SUR", "location": {"latitude": 0.0, "longitude": 0.0}, "open": true}, {"name": "TABORA", "address": "KR 77 B # 74 A-02", "location": {"latitude": 4.693927243, "longitude": -74.09813917}, "open": true}, {"name": "SALÓN COMUNAL CLARET", "address": "CALLE 46 SUR No. 27-30", "location": {"latitude": 4.603223095, "longitude": -74.12404413}, "open": true}, {"name": "NUEVA GRANADA", "address": "CL 70 Bis Sur#77L-05 -CL 70 A Sur # 77L-06", "location": {"latitude": 4.600853321, "longitude": -74.19203601}, "open": false}, {"name": "COLEGIO LA KHUMBRE", "address": "Kilómetro 16 Vía Guaymaral Finca Cucaita", "location": {"latitude": 4.8239, "longitude": -74.0735}, "open": true}, {"name": "BRISAS DEL VOLADOR", "address": "CL 76 SUR # 24 A-11", "location": {"latitude": 4.541085583, "longitude": -74.15459904}, "open": true}, {"name": "PLAZOLETA SANTA BARBARA", "address": "CRA 6 No 115-65", "location": {"latitude": 0.0, "longitude": 0.0}, "open": true}, {"name": "FAVIDI VISION DE COLOMBIA", "address": "KR 79 C # 13 A-40", "location": {"latitude": 4.650522086, "longitude": -74.1354509}, "open": true}, {"name": "RAMAJAL AMAPOLAS", "address": "CALLE 30A SUR No 9A-78 ESTE", "location": {"latitude": 4.558801, "longitude": -74.084392}, "open": true}, {"name": "TRES ESTANCIAS", "address": "CLL 15 No 119A-92", "location": {"latitude": 0.0, "longitude": 0.0}, "open": true}, {"name": "SAN EUSEBIO", "address": "CRA 51A No 26-38SUR", "location": {"latitude": 0.0, "longitude": 0.0}, "open": true}, {"name": "NUSADAL", "address": "CLL 69 A BIS SUR No 14C-18 MJ", "location": {"latitude": 0.0, "longitude": 0.0}, "open": true}, {"name": "EL MORISCO", "address": "DG 83  # 73 - 12 -DG 83  # 73 A - 12", "location": {"latitude": 4.704934841, "longitude": -74.0899624}, "open": true}, {"name": "SAN JORGE", "address": "CALLE 45 A SUR No.14 A-19/DG.45 BIS SUR No.13F-03", "location": {"latitude": 4.571310284, "longitude": -74.12005729}, "open": true}, {"name": "NARANJOS", "address": "KR 80M   No. 71C-31 SUR", "location": {"latitude": 4.60860402, "longitude": -74.1950915}, "open": true}, {"name": "PRADO SUR", "address": "CL 129 # 55-55", "location": {"latitude": 4.716627622, "longitude": -74.06416091}, "open": true}, {"name": "DIVINO NIÑO", "address": "CL 78 C SUR # 16-29", "location": {"latitude": 4.537793559, "longitude": -74.13805033}, "open": true}, {"name": "UNIVERSIDAD MILITAR", "address": "CRA 11 No 101-80", "location": {"latitude": 0.0, "longitude": 0.0}, "open": true}, {"name": "ALMENAR", "address": "KR 80 D # 48 A-17 SUR", "location": {"latitude": 4.619671732, "longitude": -74.17032062}, "open": false}, {"name": "EL RODEO SEDE B LA GLORIA", "address": "CLL 44 SUR No 6-74 ESTE-CLL 44 SUR No 6-34 ESTE", "location": {"latitude": 4.546245, "longitude": -74.093282}, "open": true}, {"name": "LOS ANGELES", "address": "CLL 39 SUR No 51F-59", "location": {"latitude": 0.0, "longitude": 0.0}, "open": true}, {"name": "LOS CEREZOS", "address": "TV. 87 A # 83 A-48", "location": {"latitude": 4.706390361, "longitude": -74.10015044}, "open": true}, {"name": "LICEO SAN PABLO", "address": "TV 5 G No. 48 P-03 SUR/CALLE 48 P SUR No.5 G-07", "location": {"latitude": 4.551487863, "longitude": -74.10814941}, "open": true}, {"name": "CAMPO VERDE - POTRERITOS", "address": "CLL 82 sur   No. 89-21", "location": {"latitude": 4.621970034, "longitude": -74.20729899}, "open": true}, {"name": "SUPERCADE SUBA", "address": "Av. Calle 145  No. 103 B - 90", "location": {"latitude": 4.74656295, "longitude": -74.09587682}, "open": false}, {"name": "CASA GRANDE", "address": "CL 68 B # 69-61 SUR MANZANA 5", "location": {"latitude": 4.677450254, "longitude": -74.09182746}, "open": false}, {"name": "LA ESTRELLITA", "address": "CRA 4 No 187D-09", "location": {"latitude": 0.0, "longitude": 0.0}, "open": true}, {"name": "ALQUERIA DE LA FRAGUA", "address": "CL 37 B SUR # 68 D-93", "location": {"latitude": 4.604686946, "longitude": -74.13596764}, "open": false}, {"name": "EL PORTAL", "address": "CRA 3B. No. 30A - 42 SUR", "location": {"latitude": 4.565752, "longitude": -74.094665}, "open": true}, {"name": "PLAZA CENTRAL", "address": "CRA 65 No 11-50", "location": {"latitude": 0.0, "longitude": 0.0}, "open": true}, {"name": "CIUDADELA COLSUBSIDIO", "address": "CL 83 # 110-58", "location": {"latitude": 4.720811409, "longitude": -74.11391557}, "open": false}, {"name": "SALÓN COMUNAL CEBADAL", "address": "CR 4 D  BIS # 52 - 95 SUR", "location": {"latitude": 4.544148442, "longitude": -74.11410211}, "open": false}, {"name": "CLARETIANO", "address": "CL 60 Sur  # 80 K - 02 -CL 60 Sur  # 80 H - 58", "location": {"latitude": 4.611743142, "longitude": -74.18472923}, "open": true}, {"name": "COLEGIO NICOLAS BUENAVENTURA", "address": "Carrera 103 B  No. 153 - 01", "location": {"latitude": 4.75393925, "longitude": -74.09107599}, "open": true}, {"name": "MONTREAL", "address": "KR 17 B # 64 B - 45 SUR", "location": {"latitude": 4.553503422, "longitude": -74.13818291}, "open": true}, {"name": "ESCLAVAS DEL SAGRADO CORAZON", "address": "CLL 175 No 20A-26", "location": {"latitude": 0.0, "longitude": 0.0}, "open": true}, {"name": "BOITA", "address": "CL 48 B # 72 K-13 SUR", "location": {"latitude": 4.602327986, "longitude": -74.15248234}, "open": false}, {"name": "LA CASTAÑA", "address": "CRA 7 C ESTE No 17-1SUR", "location": {"latitude": 0.0, "longitude": 0.0}, "open": true}, {"name": "JORGE GAITAN CORTES", "address": "CLL 17B SUR No 34A-21", "location": {"latitude": 0.0, "longitude": 0.0}, "open": true}, {"name": "FERIAS II", "address": "KR 69 B # 79 A-42", "location": {"latitude": 4.687283864, "longitude": -74.08241108}, "open": true}, {"name": "LA MARQUEZA", "address": "TV 1 B  ESTE #  49 B - 20 SUR", "location": {"latitude": 4.542889228, "longitude": -74.10702617}, "open": true}, {"name": "VILLA DEL RIO II", "address": "CARRERA 68D No 54A-31 SUR", "location": {"latitude": 4.602641, "longitude": -74.160142}, "open": true}, {"name": "SUBA SAN FRANCISCO", "address": "CRA.  84A No.  145B - 07", "location": {"latitude": 4.736569028, "longitude": -74.08020561}, "open": true}, {"name": "UNION EUROPEA", "address": "KR 18 M # 63D -09Sur -KR 18 M# 63 D -15Sur", "location": {"latitude": 4.555518042, "longitude": -74.14170769}, "open": true}, {"name": "CARDENAL SANCHA", "address": "CLL 127B BIS No 21-02", "location": {"latitude": 0.0, "longitude": 0.0}, "open": true}, {"name": "COL DE TIMIZA", "address": "Carrera 74   No. 42 G - 52 Sur", "location": {"latitude": 4.609930225, "longitude": -74.15857152}, "open": true}, {"name": "ATENAS", "address": "DIAG. 34A SUR No 1-14 ESTE", "location": {"latitude": 0.0, "longitude": 0.0}, "open": true}, {"name": "CTRO DE REHABIL. PARA ADULTOS CIEGOS", "address": "CLL 8 SUR No 31A-31", "location": {"latitude": 0.0, "longitude": 0.0}, "open": true}, {"name": "EL MUELLE", "address": "KR 105 D # 66 A - 15 -KR 105 F  # 66 - 33", "location": {"latitude": 4.699971356, "longitude": -74.12551281}, "open": true}, {"name": "RAFAEL DELGADO SEDE C", "address": "CLL 40SUR No 31-81-CLL 41 BIS SUR No 31-46", "location": {"latitude": 4.58706, "longitude": -74.123694}, "open": true}, {"name": "HOLANDA", "address": "CARRERA 87J No 55-06 SUR", "location": {"latitude": 4.62689, "longitude": -74.185528}, "open": true}, {"name": "FUNDACION SAN FELIPE NERI", "address": "CRA. 90 No. 149   73", "location": {"latitude": 4.746359719, "longitude": -74.08252439}, "open": true}, {"name": "SAN FRANCISCO SEDE B", "address": "KR 20 C # 67- 00Sur -CL 67 Sur # 20 A - 51", "location": {"latitude": 4.562830903, "longitude": -74.14896335}, "open": true}, {"name": "SIERVAS SAN JOSE LA CALLEJA", "address": "CLL 128B No 20-80", "location": {"latitude": 0.0, "longitude": 0.0}, "open": true}, {"name": "TINTALITO", "address": "CL 42 F SUR # 88 A-25", "location": {"latitude": 4.634555179, "longitude": -74.17217336}, "open": true}, {"name": "VILLA JAVIER LA MARIA", "address": "Carrera 5  No. 7 - 80 Sur", "location": {"latitude": 0.0, "longitude": 0.0}, "open": true}, {"name": "LA CABAÑA", "address": "CL 63 B # 71 A-16", "location": {"latitude": 4.674239823, "longitude": -74.10220977}, "open": true}, {"name": "SALÓN COMUNAL LA PAZ NARANJOS", "address": "DG 54 SUR  NO 3 F - 17", "location": {"latitude": 4.539744, "longitude": -74.112446}, "open": true}, {"name": "PORTAL DE BRASIL", "address": "CARRERA 88I No 54B-44 SUR", "location": {"latitude": 4.630477, "longitude": -74.185346}, "open": true}, {"name": "COLEGIO SIMON BOLIVAR SUBA", "address": "KR 92 #146-63 KR 92 #146 C 50", "location": {"latitude": 4.740112339, "longitude": -74.0852426}, "open": true}, {"name": "SAN FRANCISCO SEDE A", "address": "Kr 22 No. 64 - 29 Sur", "location": {"latitude": 4.565978985, "longitude": -74.14688829}, "open": true}, {"name": "COLEGIO PROVINMA", "address": "CLL 145 No 11-40", "location": {"latitude": 0.0, "longitude": 0.0}, "open": true}, {"name": "LAS PALMERAS", "address": "KR 90 A # 39-12 SUR", "location": {"latitude": 4.640744375, "longitude": -74.169439}, "open": true}, {"name": "LA BELLEZA", "address": "CLL 64 SUR No 10A-39 ESTE", "location": {"latitude": 0.0, "longitude": 0.0}, "open": true}, {"name": "TISQUESUSA", "address": "DG. 82 B # 79-10", "location": {"latitude": 4.702307462, "longitude": -74.09468949}, "open": false}, {"name": "INTEG. RAFAEL DELGADO SALGUERO", "address": "CRA 26 No 35A-38 SUR", "location": {"latitude": 0.0, "longitude": 0.0}, "open": true}, {"name": "RECREO MICHELSEN", "address": "CARRERA 98B No 74-68 SUR", "location": {"latitude": 4.631193, "longitude": -74.206434}, "open": true}, {"name": "COLEGIO EUCARISTICO MERCEDARIO", "address": "CARRERA 91 No. 136-53", "location": {"latitude": 4.735018727, "longitude": -74.08547841}, "open": true}, {"name": "CANDELARIA LA NUEVA DOS", "address": "CL 64 Sur  #  29 - 19 -CL 64 C Sur  #  29 - 02", "location": {"latitude": 4.568849704, "longitude": -74.1496984}, "open": true}, {"name": "COLEGIO SANS FACON", "address": "CLL 170 No 17A-55", "location": {"latitude": 0.0, "longitude": 0.0}, "open": true}, {"name": "DINDALITO", "address": "Carrera 93 A  No. 42 A - 37 Sur", "location": {"latitude": 4.641742778, "longitude": -74.17467597}, "open": true}, {"name": "AGUAS CLARAS", "address": "CLL 14 SUR No 25-05 ESTE", "location": {"latitude": 0.0, "longitude": 0.0}, "open": true}, {"name": "SANTA CECILIA", "address": "CL52 A Bis  # 78 - 35- TV 85  #  52 A - 70", "location": {"latitude": 4.677439218, "longitude": -74.11314482}, "open": false}, {"name": "PARROQUIAL SAN JOSE", "address": "TRANSV. 16F No 46B SUR -15", "location": {"latitude": 0.0, "longitude": 0.0}, "open": true}, {"name": "CEDID SAN PABLO", "address": "CARRERA 77L No 65J-73 SUR", "location": {"latitude": 4.599762, "longitude": -74.187718}, "open": true}, {"name": "ALDEA LA PALMA", "address": "CALLE 130 D No. 88 B-20", "location": {"latitude": 4.727153759, "longitude": -74.08645668}, "open": true}, {"name": "BONAVISTA", "address": "TV 70 G # 65 - 02 SUR", "location": {"latitude": 4.586314972, "longitude": -74.16381955}, "open": true}, {"name": "ANGLO AMERICANO", "address": "CLL 170 No 8-80/70", "location": {"latitude": 0.0, "longitude": 0.0}, "open": true}, {"name": "VALLADOLID", "address": "KR 85 # 8 A-28 / 36", "location": {"latitude": 4.646505004, "longitude": -74.14926762}, "open": false}, {"name": "PLAZUELAS DEL VIRREY", "address": "CL 70 A # 105 G-23", "location": {"latitude": 4.703991739, "longitude": -74.12131451}, "open": true}, {"name": "LICEO PSICOPEDAGOGICO MARCO FIDEL SUAREZ", "address": "DIAG. 46 SUR No 13-40", "location": {"latitude": 0.0, "longitude": 0.0}, "open": true}, {"name": "LA ACUARELA", "address": "CARRERA 77J No 65A-38 SUR", "location": {"latitude": 4.60049, "longitude": -74.186101}, "open": true}, {"name": "RAMON DE ZUBIRIA SEDE A", "address": "Diagonal 129 B Bis No. 93B-51", "location": {"latitude": 4.72579756, "longitude": -74.09204608}, "open": true}, {"name": "BELLA FLOR", "address": "DG 74B Bis A Sur# 26C-12 -KR 27# 74B - 51 Sur", "location": {"latitude": 4.54246198, "longitude": -74.16081295}, "open": true}, {"name": "PUREZA DE MARÍA", "address": "CRA 7 No 147-02", "location": {"latitude": 0.0, "longitude": 0.0}, "open": true}, {"name": "MILENIO PLAZA", "address": "AV CIUDAD DE CALI  NO 42 B - 51 SUR", "location": {"latitude": 4.629656524, "longitude": -74.16905702}, "open": true}, {"name": "CIUDAD DE HONDA", "address": "CL 64 F BIS # 68 G-16", "location": {"latitude": 4.672860265, "longitude": -74.09344013}, "open": true}, {"name": "MARIA CANO", "address": "TRANSV. 5U No 48J-30 SUR", "location": {"latitude": 0.0, "longitude": 0.0}, "open": true}, {"name": "MIGUEL ANGEL ASTURIAS", "address": "CRA 78D No 59A-18 SUR", "location": {"latitude": 0.0, "longitude": 0.0}, "open": true}, {"name": "COLEGIO VIRGINIA GUTIERREZ", "address": "CL 129 D # 94 D - 31 -CL 131 B # 95 - 11", "location": {"latitude": 4.731622327, "longitude": -74.09171125}, "open": true}, {"name": "EL MIRADOR", "address": "KR 27 L # 71 H - 46 SUR", "location": {"latitude": 4.551434446, "longitude": -74.16203908}, "open": true}, {"name": "COL. GABRIEL BETANCOURT MEJIA", "address": "Carrera 87 A No. 6 A - 23", "location": {"latitude": 4.644062045, "longitude": -74.15594082}, "open": false}, {"name": "ZARZAMORA", "address": "CL 71 B # 88-35", "location": {"latitude": 4.696555435, "longitude": -74.10857532}, "open": true}, {"name": "CAFAM SANTA LUCIA", "address": "DIAG. 36 SUR No 16B-26", "location": {"latitude": 0.0, "longitude": 0.0}, "open": true}, {"name": "COLISEO LA PALESTINA", "address": "CLL 68 SUR No 81G-09", "location": {"latitude": 0.0, "longitude": 0.0}, "open": true}, {"name": "COLEGIO GONZALO ARANGO", "address": "CL 130 A  # 98 - 71 -CL 130 C  # 97 - 71", "location": {"latitude": 4.730183959, "longitude": -74.09475291}, "open": true}, {"name": "LAS QUINTAS", "address": "CLL 75 SUR No 18B-45", "location": {"latitude": 0.0, "longitude": 0.0}, "open": true}, {"name": "MARIA PAZ", "address": "CL 5 A SUR # 82-63", "location": {"latitude": 4.636868682, "longitude": -74.15796744}, "open": true}, {"name": "VILLA CONSTANZA", "address": "CL 70 C # 111-15", "location": {"latitude": 4.708198455, "longitude": -74.12820884}, "open": false}, {"name": "DIANA TURBAY", "address": "DIAG. 49 SUR No 2A-01", "location": {"latitude": 0.0, "longitude": 0.0}, "open": true}, {"name": "NUESTRA SRA DE NAZARETH", "address": "CLL 65D No 80C-94", "location": {"latitude": 0.0, "longitude": 0.0}, "open": true}, {"name": "CORINTO-COLEGIO NUEVA COLOMBIA", "address": "CL128 C  # 102 A - 25 -KR 102 A # 128 A - 40", "location": {"latitude": 4.728454605, "longitude": -74.10012003}, "open": true}, {"name": "COLEGIO FANNY MIKEY", "address": "CRA 18 N No 70A-05 SUR", "location": {"latitude": 0.0, "longitude": 0.0}, "open": true}, {"name": "COLEGIO NELSON MANDELA", "address": "CR 91  NO 43 - 98 SUR", "location": {"latitude": 4.637178899, "longitude": -74.17825353}, "open": true}, {"name": "MORTIÑO", "address": "CL 75 # 110 A-23", "location": {"latitude": 4.712917626, "longitude": -74.12358636}, "open": true}, {"name": "ALIANZA QUIROGA", "address": "CRA 23 No 35-20 SUR", "location": {"latitude": 0.0, "longitude": 0.0}, "open": true}, {"name": "MANUEL ELKIN PATARROYO", "address": "CRA 81A No 82A-18 SUR", "location": {"latitude": 0.0, "longitude": 0.0}, "open": true}, {"name": "LA TOSCANA-COL.FE Y ALEGRIA", "address": "KR 131  # 134 - 44 -KR 131  # 133 - 44", "location": {"latitude": 4.744610376, "longitude": -74.11265445}, "open": true}, {"name": "MARANDU", "address": "CRA 18X No 68A-02 SUR", "location": {"latitude": 0.0, "longitude": 0.0}, "open": true}, {"name": "COLEGIO GUSTAVO ROJAS PINILLA", "address": "Calle 11 B  No. 80 B - 61", "location": {"latitude": 4.649364386, "longitude": -74.14031009}, "open": true}, {"name": "PALO BLANCO", "address": "CALLE 74 A No. 73 A 85", "location": {"latitude": 4.69148674, "longitude": -74.0955489}, "open": true}, {"name": "ESTADOS UNIDOS DE AMERICA", "address": "CLL 22 No 22-65", "location": {"latitude": 0.0, "longitude": 0.0}, "open": true}, {"name": "TORRE MAYOR", "address": "CLL 33 SUR No 26G-10", "location": {"latitude": 0.0, "longitude": 0.0}, "open": true}, {"name": "ALMACEN METRO AUTOPISTA SUR", "address": "CLL 57 SUR No 77A-18", "location": {"latitude": 0.0, "longitude": 0.0}, "open": true}, {"name": "COLEGIO PEDAGOGICO DULCE MARIA", "address": "Transversal 127C No. 139B-48", "location": {"latitude": 4.746941147, "longitude": -74.1085984}, "open": true}, {"name": "LAS MANAS", "address": "CRA 43 No 70A-50 SUR", "location": {"latitude": 0.0, "longitude": 0.0}, "open": true}, {"name": "COLEGIO CLASS I.E.D SEDE B ROM", "address": "CLL 56 A SUR  NO 78 A - 20", "location": {"latitude": 4.608833083, "longitude": -74.17119264}, "open": true}, {"name": "SAN JOAQUIN", "address": "KR 68 H  # 71 A - 01 -KR 69  # 71 - 16", "location": {"latitude": 4.680252283, "longitude": -74.08879}, "open": true}, {"name": "JARDIN INFANTIL OLARTE", "address": "CRA 71D No 54-15 SUR", "location": {"latitude": 0.0, "longitude": 0.0}, "open": true}, {"name": "INSTITUCION EDUCATIVA COMPARTIR SUBA", "address": "Carrera 128 No. 146-52", "location": {"latitude": 4.755058655, "longitude": -74.10642821}, "open": true}, {"name": "BALMORAL", "address": "CRA 70C No 60B-05 SUR", "location": {"latitude": 0.0, "longitude": 0.0}, "open": true}, {"name": "GEMA", "address": "Cl 58C Sur No. 78K-21 Cl 58B Sur No. 78K-21", "location": {"latitude": 4.60543522, "longitude": -74.17577748}, "open": true}, {"name": "PRIMAVERA", "address": "KR 92 No. 87 A - 60", "location": {"latitude": 4.712443141, "longitude": -74.09486762}, "open": true}, {"name": "GIMNASIO LOS SAUCES", "address": "CRA 88F BIS No 51C-01 SUR", "location": {"latitude": 0.0, "longitude": 0.0}, "open": true}, {"name": "COLEGIO GERARDO MOLINA", "address": "CARRERA 143 No. 142A-62", "location": {"latitude": 4.749291414, "longitude": -74.11575511}, "open": true}, {"name": "LA CORUÑA - LICEO CONTADORA", "address": "CLL 59 SUR No 45D-15", "location": {"latitude": 0.0, "longitude": 0.0}, "open": true}, {"name": "VILLA RICA", "address": "CL 49 SUR # 78-35", "location": {"latitude": 4.61109462, "longitude": -74.1662209}, "open": true}, {"name": "BOLIVIA", "address": "CRA 103 D No. 86 A 72", "location": {"latitude": 4.720602636, "longitude": -74.1083955}, "open": true}, {"name": "CLARETIANO EL LIBERTADOR", "address": "CLL 61 SUR No 80H-40", "location": {"latitude": 0.0, "longitude": 0.0}, "open": true}, {"name": "EL BATAN", "address": "CALLE 123 A No. 47-34/CARRERA 50 No. 123 A 30", "location": {"latitude": 4.704973846, "longitude": -74.05855841}, "open": false}, {"name": "TANQUE-SIERRA MORENA", "address": "CLL 77 SUR No 65-01 CLL 75C SUR No 71-03", "location": {"latitude": 0.0, "longitude": 0.0}, "open": true}, {"name": "COLEGIO JAIME GARZON", "address": "Transversal 85 A  No. 49 - 45 Sur", "location": {"latitude": 4.625074663, "longitude": -74.1758647}, "open": true}, {"name": "GRAN GRANADA", "address": "KR 114 A  # 78 B -85 -AV. KR 114  # 78 B - 80", "location": {"latitude": 4.720486374, "longitude": -74.12381298}, "open": true}, {"name": "GIMNASIO REAL AMERICANO", "address": "CLL 62 A SUR No 91A-54", "location": {"latitude": 0.0, "longitude": 0.0}, "open": true}, {"name": "NIZA CENTRO COMERCIAL NIZA", "address": "Av. Calle 127  No. 60 - 30", "location": {"latitude": 4.711050649, "longitude": -74.07277615}, "open": true}, {"name": "ICES LAS BRISAS", "address": "CLL 81 SUR No 42-09", "location": {"latitude": 0.0, "longitude": 0.0}, "open": true}, {"name": "COLEGIO DEBORA ARANGO", "address": "Carrera 84 A  No. 57 B - 04 Sur", "location": {"latitude": 4.619068747, "longitude": -74.18330964}, "open": true}, {"name": "EL CEDRO", "address": "KR 109 A  # 77 A - 16 -KR 108  # 77 - 21", "location": {"latitude": 4.714017391, "longitude": -74.12042425}, "open": true}, {"name": "LICEO CIUDAD CAPITAL", "address": "CLL 65 SUR No 100A-51", "location": {"latitude": 0.0, "longitude": 0.0}, "open": true}, {"name": "CENTRO COMERCIAL PASEO SAN RAF", "address": "AV CLL 134 NO 55 - 30 / AV CLL 134 NO 55-32", "location": {"latitude": 4.722580215, "longitude": -74.06208109}, "open": false}, {"name": "ALTOS DE LA ESTANCIA", "address": "CRA 77C No 59A-15 SUR", "location": {"latitude": 0.0, "longitude": 0.0}, "open": true}, {"name": "CAMPO BELLO", "address": "Calle 40 Sur  No. 94 C - 50", "location": {"latitude": 4.645284459, "longitude": -74.17314107}, "open": true}, {"name": "TORQUIGUA", "address": "Calle 64  No. 128 - 50", "location": {"latitude": 4.721009201, "longitude": -74.14288276}, "open": true}, {"name": "JUAN MAXIMILIANO AMBROSIO", "address": "CLL 57 SUR No 86F-30", "location": {"latitude": 0.0, "longitude": 0.0}, "open": true}, {"name": "ALMACEN ÉXITO LA COLINA", "address": "Av CL 147 con Av. KR 72 -Av.CL147 # 58 C - 91", "location": {"latitude": 4.734577603, "longitude": -74.06398993}, "open": true}, {"name": "MILLAN", "address": "CRA 20A No 67-65 SUR", "location": {"latitude": 0.0, "longitude": 0.0}, "open": true}, {"name": "PATIOS", "address": "KR 89 # 26 -03 SUR", "location": {"latitude": 4.642382116, "longitude": -74.16368715}, "open": true}, {"name": "ALMAZAN ENGATIVA", "address": "TRANSVERSAL 113 No 66-95", "location": {"latitude": 4.709365, "longitude": -74.134169}, "open": true}, {"name": "INSTITUTO GUIMARC", "address": "CLL 71C SUR No 77M-53", "location": {"latitude": 0.0, "longitude": 0.0}, "open": true}, {"name": "CARULLA RINCON DE LA COLINA", "address": "Av. Carrera 72  No. 152 B - 60", "location": {"latitude": 4.74138576, "longitude": -74.06518491}, "open": false}, {"name": "GRAN PLAZA EL ENSUEÑO", "address": "CRA 51 No 59C-93 SUR", "location": {"latitude": 0.0, "longitude": 0.0}, "open": true}, {"name": "MANUEL CEPEDA", "address": "Calle 56 Sur No. 81 – 26", "location": {"latitude": 4.616528091, "longitude": -74.1779684}, "open": true}, {"name": "UNICENTRO DE OCCIDENTE", "address": "CRA 111C No 86-05", "location": {"latitude": 0.0, "longitude": 0.0}, "open": true}, {"name": "COLEGIO COLSUBSIDIO CHICALA", "address": "CRA 87 No 53C-26 SUR", "location": {"latitude": 0.0, "longitude": 0.0}, "open": true}, {"name": "COLSUBSIDIO MAZUREN", "address": "Calle 152  No. 53 A - 05", "location": {"latitude": 4.735542854, "longitude": -74.05432875}, "open": false}, {"name": "CASA LINDA TUNAL UNIDAD 2", "address": "CLL 60 SUR No 22B-55", "location": {"latitude": 0.0, "longitude": 0.0}, "open": true}, {"name": "BAZAAR ALSACIA", "address": "CALLE 12 B No. 71 D - 61", "location": {"latitude": 4.644983866, "longitude": -74.12912059}, "open": true}, {"name": "SALON COMUNAL ALAMOS", "address": "CLL 67A No 103-04", "location": {"latitude": 0.0, "longitude": 0.0}, "open": true}, {"name": "COLEGIO CIUDADANOS DEL FUTURO", "address": "CRA 88 I No 58A-12 SUR", "location": {"latitude": 0.0, "longitude": 0.0}, "open": true}, {"name": "COLEGIO SANTA ISABEL DE HUNGRIA", "address": "Carrera 65 No. 165-10", "location": {"latitude": 4.748862285, "longitude": -74.06403889}, "open": true}, {"name": "SANTA MARIA DE KENNEDY", "address": "CLL 51C SUR NO 82A - 09", "location": {"latitude": 4.622478492, "longitude": -74.17624879}, "open": false}, {"name": "LEON VALENCIA", "address": "CRA 93A No 75B-80", "location": {"latitude": 0.0, "longitude": 0.0}, "open": true}, {"name": "CC GRAN PLAZA BOSA", "address": "CLL 65 SUR No 78H-51", "location": {"latitude": 0.0, "longitude": 0.0}, "open": true}, {"name": "BIBLIOTECA JULIO MARIO SANTO D", "address": "Av. Calle 170  No. 67 - 51", "location": {"latitude": 4.757863086, "longitude": -74.0626383}, "open": false}, {"name": "PARQUE LA AMISTAD", "address": "TV 78 J  # 41 – 40 Sur -TV 78 J # 41 -  10 Sur", "location": {"latitude": 4.618718537, "longitude": -74.1564955}, "open": true}, {"name": "LA CLARITA", "address": "CRA 83 No 70-15", "location": {"latitude": 0.0, "longitude": 0.0}, "open": true}, {"name": "COLEGIO RAFAEL MAYA", "address": "CLL 134  No. 147 C - 07", "location": {"latitude": 4.745233, "longitude": -74.118912}, "open": true}, {"name": "CENTRO DESARROLLO COMUNITARIO", "address": "CR 80 NO 43-43 SUR / AV CR 80 NO 43-43 SUR", "location": {"latitude": 4.620880335, "longitude": -74.16649995}, "open": true}, {"name": "CENTRO EDUCATIVO SCALAS", "address": "CRA 82 No 68B-09", "location": {"latitude": 0.0, "longitude": 0.0}, "open": true}, {"name": "SUBA SANTA CECILIA", "address": "CARRERA 158D No 131A-45", "location": {"latitude": 4.73982, "longitude": -74.128247}, "open": true}, {"name": "COLEGIO RODRIGO TRIANA", "address": "CL 38 B  # 89 - 81 Sur -CL 38 Sur  # 89 - 81", "location": {"latitude": 4.640583638, "longitude": -74.16841711}, "open": true}, {"name": "NACIONES UNIDAS SEDE B", "address": "CLL 73A No 69J-10", "location": {"latitude": 0.0, "longitude": 0.0}, "open": true}, {"name": "INSTITUTO SAN BASILIO", "address": "CALLE 136A No 152A-77", "location": {"latitude": 4.744097, "longitude": -74.124488}, "open": true}, {"name": "COLEGIO DARIO ECHANDIA", "address": "Calle 5 A Sur No. 88 B - 08", "location": {"latitude": 4.641814349, "longitude": -74.16208676}, "open": true}, {"name": "COLEGIO NORTE ADVENTISTA", "address": "CRA 70G No 71-04", "location": {"latitude": 0.0, "longitude": 0.0}, "open": true}, {"name": "COLEGIO JORGE MARIO BERGOGLIO", "address": "CLL 134A No 113C-51", "location": {"latitude": 0.0, "longitude": 0.0}, "open": true}, {"name": "SAN FRANCISCO EN EL TINTAL", "address": "Calle 6 D No. 90 - 51", "location": {"latitude": 4.650241607, "longitude": -74.15787947}, "open": true}, {"name": "ALCALA SEDE B", "address": "DIAG. 70 No 70-40", "location": {"latitude": 0.0, "longitude": 0.0}, "open": true}, {"name": "COLEGIO VEINTIUN ANGELES", "address": "CRA 90 No 154A-09", "location": {"latitude": 0.0, "longitude": 0.0}, "open": true}, {"name": "CENTRO COMERCIAL CIUDAD TINTAL", "address": "KR 94  # 6 C - 30 -KR 93  # 6 B - 50", "location": {"latitude": 4.652793, "longitude": -74.159458}, "open": false}, {"name": "DIVERPLAZA", "address": "TRANS. 99 No 70A-89", "location": {"latitude": 0.0, "longitude": 0.0}, "open": true}, {"name": "CHORRILLOS", "address": "KILOMETRO 7 VIA SUBA COTA", "location": {"latitude": 0.0, "longitude": 0.0}, "open": true}, {"name": "TAGASTE", "address": "AV CIUD de Cali NO 11B - 95 / CLL 11A NO 86-66", "location": {"latitude": 4.653199499, "longitude": -74.14304636}, "open": true}, {"name": "MARGARITA BOSCO", "address": "AV CLL 63 No 73A-44", "location": {"latitude": 0.0, "longitude": 0.0}, "open": true}, {"name": "HUNZA SEDE A", "address": "CRA 84A No 129A-40", "location": {"latitude": 0.0, "longitude": 0.0}, "open": true}, {"name": "TIERRA DE CASTILLOS", "address": "CL 7 C  # 78 F - 20 -KR 78 F  # 7 D - 03", "location": {"latitude": 4.637931818, "longitude": -74.14383897}, "open": true}, {"name": "COLEGIO COPES", "address": "CLL 72 No 102-23", "location": {"latitude": 0.0, "longitude": 0.0}, "open": true}, {"name": "MAXIMINO POITIERS", "address": "CLL 152A No 102-51", "location": {"latitude": 0.0, "longitude": 0.0}, "open": true}, {"name": "COLEGIO FE Y ALEGRIA", "address": "Transversal 78 C No. 6 D - 49", "location": {"latitude": 4.634035212, "longitude": -74.1458667}, "open": true}, {"name": "SALON COMUNAL AURES II", "address": "CRA 105B No 129D-92", "location": {"latitude": 0.0, "longitude": 0.0}, "open": true}, {"name": "COLEGIO JEAN PIAGET", "address": "CLL 2B No 70-22", "location": {"latitude": 4.624642, "longitude": -74.13168}, "open": true}, {"name": "SALON COMUNAL VILLA MARIA", "address": "CRA 111 No 135-25", "location": {"latitude": 0.0, "longitude": 0.0}, "open": true}, {"name": "METRO", "address": "CLL 6A No 78A-68", "location": {"latitude": 4.63228, "longitude": -74.145775}, "open": false}, {"name": "SALON COMUNAL VILLA CINDY", "address": "CLL 137B No 157-17", "location": {"latitude": 0.0, "longitude": 0.0}, "open": true}, {"name": "COLEGIO SAN PEDRO CLAVER SEDE A", "address": "CR 79C NO 41B - 51 SUR", "location": {"latitude": 4.622071, "longitude": -74.161277}, "open": true}, {"name": "FLORESTA OUTLET", "address": "CRA 69 No 98A-45", "location": {"latitude": 0.0, "longitude": 0.0}, "open": true}, {"name": "COLEGIO LA MAGDALENA", "address": "CLL 8A BIS No 94-72-CRA 94 No 8C-49", "location": {"latitude": 4.655789, "longitude": -74.156837}, "open": true}, {"name": "COLEGIO JOHN DEWEY", "address": "TRANSV. 54 No 111-85", "location": {"latitude": 0.0, "longitude": 0.0}, "open": true}, {"name": "COLEGIO DISTRITAL JACKELINE", "address": "CRA 77Q No 45A-21 SUR", "location": {"latitude": 0.0, "longitude": 0.0}, "open": true}, {"name": "COLEGIO CARO Y CUERVO", "address": "CLL 150A No 50-57", "location": {"latitude": 0.0, "longitude": 0.0}, "open": true}, {"name": "COLEGIO LUZ Y VIDA", "address": "CLL 1 SUR No 86-15", "location": {"latitude": 0.0, "longitude": 0.0}, "open": true}, {"name": "CC PORTOALEGRE", "address": "CRA 58 No 137B-01", "location": {"latitude": 0.0, "longitude": 0.0}, "open": true}, {"name": "COLEGIO RAFAEL GOBERNA", "address": "CLL 38C SUR No 86C-15", "location": {"latitude": 0.0, "longitude": 0.0}, "open": true}, {"name": "CC PARQUE LA COLINA", "address": "CRA 58D No 146-51", "location": {"latitude": 0.0, "longitude": 0.0}, "open": true}, {"name": "FERNANDO SOTO APARICIO SEDE B", "address": "CRA 80A No 51B-29", "location": {"latitude": 0.0, "longitude": 0.0}, "open": true}, {"name": "LICEO DE LONDRES", "address": "CLL 146F No 72C-95", "location": {"latitude": 0.0, "longitude": 0.0}, "open": true}, {"name": "LICEO EL CASTILLO", "address": "CRA 82 BIS No 7D-12", "location": {"latitude": 0.0, "longitude": 0.0}, "open": true}, {"name": "COLEGIO MARYMOUNT", "address": "CLL 169B No 74A-02", "location": {"latitude": 0.0, "longitude": 0.0}, "open": true}, {"name": "CENTRO COMERCIAL TINTAL PLAZA", "address": "AV CRA 86 No 6-37-AV CIUDAD CALI CON AMERICAS", "location": {"latitude": 0.0, "longitude": 0.0}, "open": true}, {"name": "SAN JOSE BAVARIA-ABRAHAM LINCOLN", "address": "CLL 170 No 65-31", "location": {"latitude": 0.0, "longitude": 0.0}, "open": true}, {"name": "SAGRADO CORAZON", "address": "CRA 81K No 54A-18 SUR", "location": {"latitude": 0.0, "longitude": 0.0}, "open": true}, {"name": "COLEGIO DEL BOSQUE", "address": "CRA 65 No 170-20", "location": {"latitude": 0.0, "longitude": 0.0}, "open": true}, {"name": "CODEMA", "address": "CLL 2 No 93-28", "location": {"latitude": 0.0, "longitude": 0.0}, "open": true}, {"name": "COLEGIO SANTIAGO ALBERIONI", "address": "CRA 62 No 169A-14", "location": {"latitude": 0.0, "longitude": 0.0}, "open": true}, {"name": "SALON COMUNAL ROMA IV", "address": "CRA 78J No 54-16 SUR", "location": {"latitude": 0.0, "longitude": 0.0}, "open": true}, {"name": "COLEGIO ALFONSO JARAMILLO", "address": "CRA 58 No 167-20", "location": {"latitude": 0.0, "longitude": 0.0}, "open": true}, {"name": "KENNEDY CENTRAL", "address": "CRA 38C SUR No 79-08", "location": {"latitude": 0.0, "longitude": 0.0}, "open": true}, {"name": "MIRANDELA - NUEVA ZELANDIA", "address": "CLL 187 No 49-42", "location": {"latitude": 0.0, "longitude": 0.0}, "open": true}, {"name": "FERNANDO SOTO APARICIO", "address": "TRANSVERSAL 73A BIS B No 36-47 SUR", "location": {"latitude": 0.0, "longitude": 0.0}, "open": true}, {"name": "CENTRO COMERCIAL SANTAFE", "address": "CLL 185 No 45-03", "location": {"latitude": 0.0, "longitude": 0.0}, "open": true}, {"name": "ROSA MARIA DE GORDILLO", "address": "CRA 73D No 35-20 SUR", "location": {"latitude": 0.0, "longitude": 0.0}, "open": true}, {"name": "SALON COMUNAL CARVAJAL OSORIO", "address": "Carrera 68 L  No.37 D - 38 Sur / Calle 38 Sur  No. 68 J - 50 *", "location": {"latitude": 0.0, "longitude": 0.0}, "open": true}, {"name": "CARLOS ARANGO VELEZ", "address": "CRA 70B No 24B-35 SUR", "location": {"latitude": 0.0, "longitude": 0.0}, "open": true}, {"name": "NICOLAS ESGUERRA", "address": "CLL 9 C No 68-52", "location": {"latitude": 0.0, "longitude": 0.0}, "open": true}, {"name": "SALON COMUNAL MARSELLA", "address": "CRA 69 No 8-28", "location": {"latitude": 0.0, "longitude": 0.0}, "open": true}, {"name": "ISABEL II", "address": "DIAG. 2D No 79C-83", "location": {"latitude": 0.0, "longitude": 0.0}, "open": true}, {"name": "LICEO REYNEL", "address": "CLL 39 SUR No 68F-15", "location": {"latitude": 0.0, "longitude": 0.0}, "open": true}, {"name": "COLEGIO OEA ANTONIA SANTOS", "address": "CRA 69 BIS No 30-39 SUR", "location": {"latitude": 0.0, "longitude": 0.0}, "open": true}, {"name": "SALON COMUNAL BOITA II SECTOR", "address": "CRA 72R BIS No 48-11 SUR", "location": {"latitude": 0.0, "longitude": 0.0}, "open": true}, {"name": "SALON COMUNAL SANTA CATALINA", "address": "CRA 72Q BIS No 43-06 SUR", "location": {"latitude": 0.0, "longitude": 0.0}, "open": true}, {"name": "COLEGIO INTEGRACION MODERNA", "address": "CLL 4 No 71A-41", "location": {"latitude": 0.0, "longitude": 0.0}, "open": true}]